[
  {
    "name": "Dr. Priya Ghosh",
    "specialty": "Cardiology",
    "clinic": "Ghosh Health Clinic",
    "address": "165 Delhi Main Road",
    "city": "Delhi",
    "state": "India",
    "pincode": 412437,
    "phone": "+91-6049905238",
    "lat": 28.723083849248376,
    "lng": 77.11890236059368
  },
  {
    "name": "Dr. Sneha Kulkarni",
    "specialty": "Cardiology",
    "clinic": "Kulkarni Health Clinic",
    "address": "16 Mumbai Main Road",
    "city": "Mumbai",
    "state": "India",
    "pincode": 760672,
    "phone": "+91-6103641103",
    "lat": 19.070838915924448,
    "lng": 72.88507116738158
  },
  {
    "name": "Dr. Nidhi Mehta",
    "specialty": "Cardiology",
    "clinic": "Mehta Health Clinic",
    "address": "48 Mumbai Main Road",
    "city": "Mumbai",
    "state": "India",
    "pincode": 828542,
    "phone": "+91-6745132364",
    "lat": 19.066555277331073,
    "lng": 72.89761228095426
  },
  {
    "name": "Dr. Nirmala Kulkarni",
    "specialty": "Cardiology",
    "clinic": "Kulkarni Health Clinic",
    "address": "116 Lucknow Main Road",
    "city": "Lucknow",
    "state": "India",
    "pincode": 359948,
    "phone": "+91-7524974736",
    "lat": 26.84353278099237,
    "lng": 80.93800091661076
  },
  {
    "name": "Dr. Sayan Shah",
    "specialty": "Cardiology",
    "clinic": "Shah Health Clinic",
    "address": "119 Kolkata Main Road",
    "city": "Kolkata",
    "state": "India",
    "pincode": 879653,
    "phone": "+91-7378681951",
    "lat": 22.573693137012018,
    "lng": 88.37913826250103
  },
  {
    "name": "Dr. Sneha Mehta",
    "specialty": "Cardiology",
    "clinic": "Mehta Health Clinic",
    "address": "89 Lucknow Main Road",
    "city": "Lucknow",
    "state": "India",
    "pincode": 714923,
    "phone": "+91-7837483582",
    "lat": 26.854575757011737,
    "lng": 80.9568653109749
  },
  {
    "name": "Dr. Manish Das",
    "specialty": "Cardiology",
    "clinic": "Das Health Clinic",
    "address": "16 Pune Main Road",
    "city": "Pune",
    "state": "India",
    "pincode": 271688,
    "phone": "+91-9811733608",
    "lat": 18.507758643975944,
    "lng": 73.87069246770274
  },
  {
    "name": "Dr. Anirban Verma",
    "specialty": "Cardiology",
    "clinic": "Verma Health Clinic",
    "address": "160 Chennai Main Road",
    "city": "Chennai",
    "state": "India",
    "pincode": 996303,
    "phone": "+91-8907497604",
    "lat": 13.070938179195956,
    "lng": 80.28030365498745
  },
  {
    "name": "Dr. Vikram Mehta",
    "specialty": "Cardiology",
    "clinic": "Mehta Health Clinic",
    "address": "96 Lucknow Main Road",
    "city": "Lucknow",
    "state": "India",
    "pincode": 542083,
    "phone": "+91-7645465160",
    "lat": 26.86501709667587,
    "lng": 80.95075543565282
  },
  {
    "name": "Dr. Aditi Das",
    "specialty": "Cardiology",
    "clinic": "Das Health Clinic",
    "address": "148 Hyderabad Main Road",
    "city": "Hyderabad",
    "state": "India",
    "pincode": 599267,
    "phone": "+91-6587898179",
    "lat": 17.366092130079142,
    "lng": 78.50295851166881
  },
  {
    "name": "Dr. Priya Verma",
    "specialty": "Cardiology",
    "clinic": "Verma Health Clinic",
    "address": "26 Jaipur Main Road",
    "city": "Jaipur",
    "state": "India",
    "pincode": 323287,
    "phone": "+91-6846108984",
    "lat": 26.9100237579339,
    "lng": 75.7940958415558
  },
  {
    "name": "Dr. Sayan Kulkarni",
    "specialty": "Cardiology",
    "clinic": "Kulkarni Health Clinic",
    "address": "128 Delhi Main Road",
    "city": "Delhi",
    "state": "India",
    "pincode": 238995,
    "phone": "+91-8016833582",
    "lat": 28.723791304691474,
    "lng": 77.10675739635857
  },
  {
    "name": "Dr. Jay Kulkarni",
    "specialty": "Cardiology",
    "clinic": "Kulkarni Health Clinic",
    "address": "109 Mumbai Main Road",
    "city": "Mumbai",
    "state": "India",
    "pincode": 692808,
    "phone": "+91-9361954722",
    "lat": 19.08735320337805,
    "lng": 72.86554970064857
  },
  {
    "name": "Dr. Sunita Krishnan",
    "specialty": "Cardiology",
    "clinic": "Krishnan Health Clinic",
    "address": "109 Pune Main Road",
    "city": "Pune",
    "state": "India",
    "pincode": 601217,
    "phone": "+91-6584208289",
    "lat": 18.52389393533174,
    "lng": 73.84779582407295
  },
  {
    "name": "Dr. Aditi Rao",
    "specialty": "Cardiology",
    "clinic": "Rao Health Clinic",
    "address": "86 Hyderabad Main Road",
    "city": "Hyderabad",
    "state": "India",
    "pincode": 520193,
    "phone": "+91-8441564310",
    "lat": 17.39784833046144,
    "lng": 78.4920832298909
  },
  {
    "name": "Dr. Nidhi Khan",
    "specialty": "Cardiology",
    "clinic": "Khan Health Clinic",
    "address": "89 Bengaluru Main Road",
    "city": "Bengaluru",
    "state": "India",
    "pincode": 143492,
    "phone": "+91-9654660144",
    "lat": 12.958778276982871,
    "lng": 77.58733673905812
  },
  {
    "name": "Dr. Sneha Mehta",
    "specialty": "Cardiology",
    "clinic": "Mehta Health Clinic",
    "address": "83 Ahmedabad Main Road",
    "city": "Ahmedabad",
    "state": "India",
    "pincode": 137269,
    "phone": "+91-8770076583",
    "lat": 23.030183214564197,
    "lng": 72.55587186723281
  },
  {
    "name": "Dr. Sayan Rao",
    "specialty": "Cardiology",
    "clinic": "Rao Health Clinic",
    "address": "36 Bengaluru Main Road",
    "city": "Bengaluru",
    "state": "India",
    "pincode": 640774,
    "phone": "+91-6423023223",
    "lat": 12.983126732675087,
    "lng": 77.60768388953193
  },
  {
    "name": "Dr. Anil Banerjee",
    "specialty": "Cardiology",
    "clinic": "Banerjee Health Clinic",
    "address": "146 Lucknow Main Road",
    "city": "Lucknow",
    "state": "India",
    "pincode": 840629,
    "phone": "+91-8030020443",
    "lat": 26.850965020747577,
    "lng": 80.94684519894382
  },
  {
    "name": "Dr. Vikram Patel",
    "specialty": "Cardiology",
    "clinic": "Patel Health Clinic",
    "address": "159 Delhi Main Road",
    "city": "Delhi",
    "state": "India",
    "pincode": 769060,
    "phone": "+91-6122593041",
    "lat": 28.717704881232976,
    "lng": 77.11509639033422
  },
  {
    "name": "Dr. Manish Shah",
    "specialty": "Cardiology",
    "clinic": "Shah Health Clinic",
    "address": "23 Mumbai Main Road",
    "city": "Mumbai",
    "state": "India",
    "pincode": 282451,
    "phone": "+91-9324664639",
    "lat": 19.05879495041173,
    "lng": 72.85895160273064
  },
  {
    "name": "Dr. Vikram Krishnan",
    "specialty": "Cardiology",
    "clinic": "Krishnan Health Clinic",
    "address": "96 Mumbai Main Road",
    "city": "Mumbai",
    "state": "India",
    "pincode": 570001,
    "phone": "+91-9933448909",
    "lat": 19.06443324160772,
    "lng": 72.86035797637983
  },
  {
    "name": "Dr. Priya Ghosh",
    "specialty": "Cardiology",
    "clinic": "Ghosh Health Clinic",
    "address": "70 Jaipur Main Road",
    "city": "Jaipur",
    "state": "India",
    "pincode": 119448,
    "phone": "+91-8405958658",
    "lat": 26.90469040580963,
    "lng": 75.78782912890956
  },
  {
    "name": "Dr. Rohan Mehta",
    "specialty": "Cardiology",
    "clinic": "Mehta Health Clinic",
    "address": "52 Hyderabad Main Road",
    "city": "Hyderabad",
    "state": "India",
    "pincode": 911989,
    "phone": "+91-7565718080",
    "lat": 17.392501774510215,
    "lng": 78.48302074523866
  },
  {
    "name": "Dr. Meera Reddy",
    "specialty": "Cardiology",
    "clinic": "Reddy Health Clinic",
    "address": "155 Kolkata Main Road",
    "city": "Kolkata",
    "state": "India",
    "pincode": 578402,
    "phone": "+91-7803228917",
    "lat": 22.586752496707792,
    "lng": 88.35014444655003
  },
  {
    "name": "Dr. Latha Singh",
    "specialty": "Cardiology",
    "clinic": "Singh Health Clinic",
    "address": "81 Lucknow Main Road",
    "city": "Lucknow",
    "state": "India",
    "pincode": 238553,
    "phone": "+91-6698729274",
    "lat": 26.841234988671395,
    "lng": 80.94335479273053
  },
  {
    "name": "Dr. Anirban Reddy",
    "specialty": "Cardiology",
    "clinic": "Reddy Health Clinic",
    "address": "135 Delhi Main Road",
    "city": "Delhi",
    "state": "India",
    "pincode": 784455,
    "phone": "+91-9351388320",
    "lat": 28.68911189905644,
    "lng": 77.09248875574346
  },
  {
    "name": "Dr. Rajesh Singh",
    "specialty": "Cardiology",
    "clinic": "Singh Health Clinic",
    "address": "76 Chennai Main Road",
    "city": "Chennai",
    "state": "India",
    "pincode": 163693,
    "phone": "+91-6988085281",
    "lat": 13.095053046867577,
    "lng": 80.28089975801677
  },
  {
    "name": "Dr. Meera Chakraborty",
    "specialty": "Cardiology",
    "clinic": "Chakraborty Health Clinic",
    "address": "136 Chennai Main Road",
    "city": "Chennai",
    "state": "India",
    "pincode": 819746,
    "phone": "+91-8303393068",
    "lat": 13.100014346718169,
    "lng": 80.2772097440204
  },
  {
    "name": "Dr. Sayan Das",
    "specialty": "Cardiology",
    "clinic": "Das Health Clinic",
    "address": "191 Jaipur Main Road",
    "city": "Jaipur",
    "state": "India",
    "pincode": 288539,
    "phone": "+91-9752311830",
    "lat": 26.916910317794798,
    "lng": 75.79837610663353
  },
  {
    "name": "Dr. Rita Ghosh",
    "specialty": "Cardiology",
    "clinic": "Ghosh Health Clinic",
    "address": "27 Chennai Main Road",
    "city": "Chennai",
    "state": "India",
    "pincode": 370840,
    "phone": "+91-7667838583",
    "lat": 13.080294870011029,
    "lng": 80.2656377698352
  },
  {
    "name": "Dr. Rajesh Ghosh",
    "specialty": "Cardiology",
    "clinic": "Ghosh Health Clinic",
    "address": "187 Hyderabad Main Road",
    "city": "Hyderabad",
    "state": "India",
    "pincode": 395454,
    "phone": "+91-6524151265",
    "lat": 17.38229554204379,
    "lng": 78.49276412878434
  },
  {
    "name": "Dr. Farheen Sengupta",
    "specialty": "Cardiology",
    "clinic": "Sengupta Health Clinic",
    "address": "60 Pune Main Road",
    "city": "Pune",
    "state": "India",
    "pincode": 738748,
    "phone": "+91-8422596502",
    "lat": 18.528813584185173,
    "lng": 73.8570996858396
  },
  {
    "name": "Dr. Kavita Singh",
    "specialty": "Cardiology",
    "clinic": "Singh Health Clinic",
    "address": "123 Ahmedabad Main Road",
    "city": "Ahmedabad",
    "state": "India",
    "pincode": 580905,
    "phone": "+91-6062670380",
    "lat": 23.017849411150866,
    "lng": 72.55815727434167
  },
  {
    "name": "Dr. Farheen Patel",
    "specialty": "Cardiology",
    "clinic": "Patel Health Clinic",
    "address": "101 Kolkata Main Road",
    "city": "Kolkata",
    "state": "India",
    "pincode": 348568,
    "phone": "+91-7797608752",
    "lat": 22.57373219157183,
    "lng": 88.34793002626063
  },
  {
    "name": "Dr. Meera Ghosh",
    "specialty": "Cardiology",
    "clinic": "Ghosh Health Clinic",
    "address": "60 Lucknow Main Road",
    "city": "Lucknow",
    "state": "India",
    "pincode": 156536,
    "phone": "+91-6324094734",
    "lat": 26.841096112644482,
    "lng": 80.94382407884608
  },
  {
    "name": "Dr. Latha Ghosh",
    "specialty": "Cardiology",
    "clinic": "Ghosh Health Clinic",
    "address": "58 Delhi Main Road",
    "city": "Delhi",
    "state": "India",
    "pincode": 295511,
    "phone": "+91-8235818342",
    "lat": 28.698913352795607,
    "lng": 77.12138955564006
  },
  {
    "name": "Dr. Rupal Chakraborty",
    "specialty": "Cardiology",
    "clinic": "Chakraborty Health Clinic",
    "address": "94 Mumbai Main Road",
    "city": "Mumbai",
    "state": "India",
    "pincode": 114480,
    "phone": "+91-9932651470",
    "lat": 19.0840362112286,
    "lng": 72.87392632809966
  },
  {
    "name": "Dr. Farheen Shah",
    "specialty": "Cardiology",
    "clinic": "Shah Health Clinic",
    "address": "182 Lucknow Main Road",
    "city": "Lucknow",
    "state": "India",
    "pincode": 837853,
    "phone": "+91-7296620108",
    "lat": 26.842245733760763,
    "lng": 80.95312848175696
  },
  {
    "name": "Dr. Latha Patel",
    "specialty": "Cardiology",
    "clinic": "Patel Health Clinic",
    "address": "176 Hyderabad Main Road",
    "city": "Hyderabad",
    "state": "India",
    "pincode": 385507,
    "phone": "+91-6116622491",
    "lat": 17.402056741297205,
    "lng": 78.49772897308948
  },
  {
    "name": "Dr. Manish Sharma",
    "specialty": "Cardiology",
    "clinic": "Sharma Health Clinic",
    "address": "167 Ahmedabad Main Road",
    "city": "Ahmedabad",
    "state": "India",
    "pincode": 461582,
    "phone": "+91-8904282851",
    "lat": 23.014139515838124,
    "lng": 72.56483551429429
  },
  {
    "name": "Dr. Vikram Rao",
    "specialty": "Cardiology",
    "clinic": "Rao Health Clinic",
    "address": "45 Jaipur Main Road",
    "city": "Jaipur",
    "state": "India",
    "pincode": 600467,
    "phone": "+91-7043310210",
    "lat": 26.92618769691669,
    "lng": 75.79540155661931
  },
  {
    "name": "Dr. Rita Sharma",
    "specialty": "Cardiology",
    "clinic": "Sharma Health Clinic",
    "address": "141 Delhi Main Road",
    "city": "Delhi",
    "state": "India",
    "pincode": 282179,
    "phone": "+91-8531664958",
    "lat": 28.703955504818115,
    "lng": 77.11530682649637
  },
  {
    "name": "Dr. Anil Mehta",
    "specialty": "Cardiology",
    "clinic": "Mehta Health Clinic",
    "address": "70 Bengaluru Main Road",
    "city": "Bengaluru",
    "state": "India",
    "pincode": 620580,
    "phone": "+91-6350633511",
    "lat": 12.988162221210466,
    "lng": 77.58434837796645
  },
  {
    "name": "Dr. Aditi Mehta",
    "specialty": "Cardiology",
    "clinic": "Mehta Health Clinic",
    "address": "143 Jaipur Main Road",
    "city": "Jaipur",
    "state": "India",
    "pincode": 456675,
    "phone": "+91-8404186656",
    "lat": 26.91003687886339,
    "lng": 75.79974101339462
  },
  {
    "name": "Dr. Farheen Verma",
    "specialty": "Cardiology",
    "clinic": "Verma Health Clinic",
    "address": "143 Jaipur Main Road",
    "city": "Jaipur",
    "state": "India",
    "pincode": 830301,
    "phone": "+91-8831715962",
    "lat": 26.919490896364806,
    "lng": 75.76846101571951
  },
  {
    "name": "Dr. Anil Banerjee",
    "specialty": "Cardiology",
    "clinic": "Banerjee Health Clinic",
    "address": "129 Mumbai Main Road",
    "city": "Mumbai",
    "state": "India",
    "pincode": 428534,
    "phone": "+91-9210142958",
    "lat": 19.0582632273214,
    "lng": 72.86025382059748
  },
  {
    "name": "Dr. Farheen Patel",
    "specialty": "Cardiology",
    "clinic": "Patel Health Clinic",
    "address": "73 Lucknow Main Road",
    "city": "Lucknow",
    "state": "India",
    "pincode": 644423,
    "phone": "+91-7516453973",
    "lat": 26.839179614616977,
    "lng": 80.95310936985919
  },
  {
    "name": "Dr. Aditi Sharma",
    "specialty": "Cardiology",
    "clinic": "Sharma Health Clinic",
    "address": "158 Chennai Main Road",
    "city": "Chennai",
    "state": "India",
    "pincode": 923320,
    "phone": "+91-6419141456",
    "lat": 13.077330630256343,
    "lng": 80.27852379352923
  },
  {
    "name": "Dr. Arjun Ghosh",
    "specialty": "Cardiology",
    "clinic": "Ghosh Health Clinic",
    "address": "166 Jaipur Main Road",
    "city": "Jaipur",
    "state": "India",
    "pincode": 347893,
    "phone": "+91-9775560837",
    "lat": 26.92990489676229,
    "lng": 75.78839667024472
  },
  {
    "name": "Dr. Manish Sharma",
    "specialty": "Cardiology",
    "clinic": "Sharma Health Clinic",
    "address": "80 Bengaluru Main Road",
    "city": "Bengaluru",
    "state": "India",
    "pincode": 399828,
    "phone": "+91-8867526196",
    "lat": 12.953756334461376,
    "lng": 77.58792359703226
  },
  {
    "name": "Dr. Farheen Ghosh",
    "specialty": "Cardiology",
    "clinic": "Ghosh Health Clinic",
    "address": "28 Bengaluru Main Road",
    "city": "Bengaluru",
    "state": "India",
    "pincode": 402914,
    "phone": "+91-8620839067",
    "lat": 12.971145086280874,
    "lng": 77.61292245761369
  },
  {
    "name": "Dr. Arjun Reddy",
    "specialty": "Cardiology",
    "clinic": "Reddy Health Clinic",
    "address": "37 Pune Main Road",
    "city": "Pune",
    "state": "India",
    "pincode": 636831,
    "phone": "+91-8094481155",
    "lat": 18.513836712969756,
    "lng": 73.84578783143023
  },
  {
    "name": "Dr. Rohan Singh",
    "specialty": "Cardiology",
    "clinic": "Singh Health Clinic",
    "address": "118 Pune Main Road",
    "city": "Pune",
    "state": "India",
    "pincode": 269182,
    "phone": "+91-7311258222",
    "lat": 18.51371120875706,
    "lng": 73.85846086824107
  },
  {
    "name": "Dr. Hina Reddy",
    "specialty": "Cardiology",
    "clinic": "Reddy Health Clinic",
    "address": "124 Pune Main Road",
    "city": "Pune",
    "state": "India",
    "pincode": 341846,
    "phone": "+91-6057172869",
    "lat": 18.51992881564106,
    "lng": 73.84455755359618
  },
  {
    "name": "Dr. Nidhi Ghosh",
    "specialty": "Cardiology",
    "clinic": "Ghosh Health Clinic",
    "address": "166 Delhi Main Road",
    "city": "Delhi",
    "state": "India",
    "pincode": 844159,
    "phone": "+91-9767718368",
    "lat": 28.719336966912252,
    "lng": 77.12185843239232
  },
  {
    "name": "Dr. Anil Sengupta",
    "specialty": "Cardiology",
    "clinic": "Sengupta Health Clinic",
    "address": "48 Pune Main Road",
    "city": "Pune",
    "state": "India",
    "pincode": 814333,
    "phone": "+91-6823280234",
    "lat": 18.504713381494238,
    "lng": 73.84052691822103
  },
  {
    "name": "Dr. Kavita Khan",
    "specialty": "Cardiology",
    "clinic": "Khan Health Clinic",
    "address": "27 Jaipur Main Road",
    "city": "Jaipur",
    "state": "India",
    "pincode": 453447,
    "phone": "+91-8742859203",
    "lat": 26.8973437134818,
    "lng": 75.78970834688157
  },
  {
    "name": "Dr. Priya Sengupta",
    "specialty": "Cardiology",
    "clinic": "Sengupta Health Clinic",
    "address": "57 Jaipur Main Road",
    "city": "Jaipur",
    "state": "India",
    "pincode": 701430,
    "phone": "+91-6275887683",
    "lat": 26.897031069783214,
    "lng": 75.79026621666611
  },
  {
    "name": "Dr. Rita Banerjee",
    "specialty": "Cardiology",
    "clinic": "Banerjee Health Clinic",
    "address": "104 Lucknow Main Road",
    "city": "Lucknow",
    "state": "India",
    "pincode": 429586,
    "phone": "+91-8033271559",
    "lat": 26.858450279943572,
    "lng": 80.96611240025979
  },
  {
    "name": "Dr. Sneha Sengupta",
    "specialty": "Cardiology",
    "clinic": "Sengupta Health Clinic",
    "address": "42 Kolkata Main Road",
    "city": "Kolkata",
    "state": "India",
    "pincode": 951371,
    "phone": "+91-8634864781",
    "lat": 22.55442365192655,
    "lng": 88.38137290682596
  },
  {
    "name": "Dr. Manish Banerjee",
    "specialty": "Cardiology",
    "clinic": "Banerjee Health Clinic",
    "address": "131 Pune Main Road",
    "city": "Pune",
    "state": "India",
    "pincode": 120732,
    "phone": "+91-8347940293",
    "lat": 18.52358370103247,
    "lng": 73.84461146795068
  },
  {
    "name": "Dr. Farheen Verma",
    "specialty": "Dermatology",
    "clinic": "Verma Health Clinic",
    "address": "28 Kolkata Main Road",
    "city": "Kolkata",
    "state": "India",
    "pincode": 870374,
    "phone": "+91-8912431112",
    "lat": 22.59233838838053,
    "lng": 88.37607359540249
  },
  {
    "name": "Dr. Ritu Mehta",
    "specialty": "Dermatology",
    "clinic": "Mehta Health Clinic",
    "address": "130 Lucknow Main Road",
    "city": "Lucknow",
    "state": "India",
    "pincode": 446609,
    "phone": "+91-9937329956",
    "lat": 26.85239529400322,
    "lng": 80.94906128958178
  },
  {
    "name": "Dr. Nirmala Das",
    "specialty": "Dermatology",
    "clinic": "Das Health Clinic",
    "address": "101 Bengaluru Main Road",
    "city": "Bengaluru",
    "state": "India",
    "pincode": 886665,
    "phone": "+91-6051548950",
    "lat": 12.971949924995277,
    "lng": 77.57667369253775
  },
  {
    "name": "Dr. Jay Patel",
    "specialty": "Dermatology",
    "clinic": "Patel Health Clinic",
    "address": "13 Hyderabad Main Road",
    "city": "Hyderabad",
    "state": "India",
    "pincode": 187885,
    "phone": "+91-8076413543",
    "lat": 17.3967548015603,
    "lng": 78.48474044127666
  },
  {
    "name": "Dr. Anil Chakraborty",
    "specialty": "Dermatology",
    "clinic": "Chakraborty Health Clinic",
    "address": "167 Pune Main Road",
    "city": "Pune",
    "state": "India",
    "pincode": 224465,
    "phone": "+91-8710122716",
    "lat": 18.515125120765685,
    "lng": 73.84318024787643
  },
  {
    "name": "Dr. Farheen Ghosh",
    "specialty": "Dermatology",
    "clinic": "Ghosh Health Clinic",
    "address": "21 Delhi Main Road",
    "city": "Delhi",
    "state": "India",
    "pincode": 109897,
    "phone": "+91-9434685971",
    "lat": 28.712660712879483,
    "lng": 77.09911096976731
  },
  {
    "name": "Dr. Arjun Sharma",
    "specialty": "Dermatology",
    "clinic": "Sharma Health Clinic",
    "address": "123 Kolkata Main Road",
    "city": "Kolkata",
    "state": "India",
    "pincode": 100334,
    "phone": "+91-7910951164",
    "lat": 22.559797280736195,
    "lng": 88.36105381010458
  },
  {
    "name": "Dr. Aditi Rao",
    "specialty": "Dermatology",
    "clinic": "Rao Health Clinic",
    "address": "146 Kolkata Main Road",
    "city": "Kolkata",
    "state": "India",
    "pincode": 733607,
    "phone": "+91-9169265700",
    "lat": 22.592334320028435,
    "lng": 88.36593276005118
  },
  {
    "name": "Dr. Anil Banerjee",
    "specialty": "Dermatology",
    "clinic": "Banerjee Health Clinic",
    "address": "44 Chennai Main Road",
    "city": "Chennai",
    "state": "India",
    "pincode": 390022,
    "phone": "+91-8993694535",
    "lat": 13.083186559226338,
    "lng": 80.27269291705102
  },
  {
    "name": "Dr. Rita Sengupta",
    "specialty": "Dermatology",
    "clinic": "Sengupta Health Clinic",
    "address": "41 Kolkata Main Road",
    "city": "Kolkata",
    "state": "India",
    "pincode": 267569,
    "phone": "+91-7700492991",
    "lat": 22.55716869053081,
    "lng": 88.36002431584399
  },
  {
    "name": "Dr. Rohan Shah",
    "specialty": "Dermatology",
    "clinic": "Shah Health Clinic",
    "address": "135 Hyderabad Main Road",
    "city": "Hyderabad",
    "state": "India",
    "pincode": 921608,
    "phone": "+91-9175850784",
    "lat": 17.377784384886525,
    "lng": 78.4704060127569
  },
  {
    "name": "Dr. Manish Verma",
    "specialty": "Dermatology",
    "clinic": "Verma Health Clinic",
    "address": "133 Lucknow Main Road",
    "city": "Lucknow",
    "state": "India",
    "pincode": 912960,
    "phone": "+91-7729502321",
    "lat": 26.86319319945652,
    "lng": 80.95391570548058
  },
  {
    "name": "Dr. Anirban Rao",
    "specialty": "Dermatology",
    "clinic": "Rao Health Clinic",
    "address": "173 Delhi Main Road",
    "city": "Delhi",
    "state": "India",
    "pincode": 338128,
    "phone": "+91-8133013501",
    "lat": 28.709090373653204,
    "lng": 77.10948281894574
  },
  {
    "name": "Dr. Nidhi Reddy",
    "specialty": "Dermatology",
    "clinic": "Reddy Health Clinic",
    "address": "25 Jaipur Main Road",
    "city": "Jaipur",
    "state": "India",
    "pincode": 524922,
    "phone": "+91-6007042608",
    "lat": 26.916954908678875,
    "lng": 75.79945684134631
  },
  {
    "name": "Dr. Aditi Shah",
    "specialty": "Dermatology",
    "clinic": "Shah Health Clinic",
    "address": "150 Kolkata Main Road",
    "city": "Kolkata",
    "state": "India",
    "pincode": 845125,
    "phone": "+91-7851789934",
    "lat": 22.583449310424797,
    "lng": 88.36275579637811
  },
  {
    "name": "Dr. Vikram Verma",
    "specialty": "Dermatology",
    "clinic": "Verma Health Clinic",
    "address": "176 Lucknow Main Road",
    "city": "Lucknow",
    "state": "India",
    "pincode": 486928,
    "phone": "+91-7198986639",
    "lat": 26.851093919174367,
    "lng": 80.94228656566874
  },
  {
    "name": "Dr. Rohan Verma",
    "specialty": "Dermatology",
    "clinic": "Verma Health Clinic",
    "address": "49 Jaipur Main Road",
    "city": "Jaipur",
    "state": "India",
    "pincode": 495902,
    "phone": "+91-6525277245",
    "lat": 26.9289449617219,
    "lng": 75.77637109760401
  },
  {
    "name": "Dr. Priya Mehta",
    "specialty": "Dermatology",
    "clinic": "Mehta Health Clinic",
    "address": "28 Pune Main Road",
    "city": "Pune",
    "state": "India",
    "pincode": 232973,
    "phone": "+91-9724392570",
    "lat": 18.502276820518222,
    "lng": 73.85253032541377
  },
  {
    "name": "Dr. Meera Patel",
    "specialty": "Dermatology",
    "clinic": "Patel Health Clinic",
    "address": "136 Lucknow Main Road",
    "city": "Lucknow",
    "state": "India",
    "pincode": 868524,
    "phone": "+91-9242827153",
    "lat": 26.84556244878615,
    "lng": 80.96039692491674
  },
  {
    "name": "Dr. Latha Sengupta",
    "specialty": "Dermatology",
    "clinic": "Sengupta Health Clinic",
    "address": "140 Lucknow Main Road",
    "city": "Lucknow",
    "state": "India",
    "pincode": 864107,
    "phone": "+91-9138610322",
    "lat": 26.848341820231365,
    "lng": 80.9634529879474
  },
  {
    "name": "Dr. Sunita Reddy",
    "specialty": "Dermatology",
    "clinic": "Reddy Health Clinic",
    "address": "112 Lucknow Main Road",
    "city": "Lucknow",
    "state": "India",
    "pincode": 854340,
    "phone": "+91-9707548836",
    "lat": 26.85230957395328,
    "lng": 80.93668165378062
  },
  {
    "name": "Dr. Rajesh Banerjee",
    "specialty": "Dermatology",
    "clinic": "Banerjee Health Clinic",
    "address": "105 Pune Main Road",
    "city": "Pune",
    "state": "India",
    "pincode": 995307,
    "phone": "+91-6598567917",
    "lat": 18.517051591767224,
    "lng": 73.87124140940124
  },
  {
    "name": "Dr. Nirmala Krishnan",
    "specialty": "Dermatology",
    "clinic": "Krishnan Health Clinic",
    "address": "152 Pune Main Road",
    "city": "Pune",
    "state": "India",
    "pincode": 963118,
    "phone": "+91-6354096997",
    "lat": 18.530407884617677,
    "lng": 73.8529440567829
  },
  {
    "name": "Dr. Latha Das",
    "specialty": "Dermatology",
    "clinic": "Das Health Clinic",
    "address": "109 Mumbai Main Road",
    "city": "Mumbai",
    "state": "India",
    "pincode": 336630,
    "phone": "+91-6536187218",
    "lat": 19.067173819508362,
    "lng": 72.86140639003143
  },
  {
    "name": "Dr. Anil Chakraborty",
    "specialty": "Dermatology",
    "clinic": "Chakraborty Health Clinic",
    "address": "48 Chennai Main Road",
    "city": "Chennai",
    "state": "India",
    "pincode": 143881,
    "phone": "+91-6498033088",
    "lat": 13.068809758062395,
    "lng": 80.28443250937237
  },
  {
    "name": "Dr. Nidhi Chakraborty",
    "specialty": "Dermatology",
    "clinic": "Chakraborty Health Clinic",
    "address": "128 Kolkata Main Road",
    "city": "Kolkata",
    "state": "India",
    "pincode": 972698,
    "phone": "+91-8932188816",
    "lat": 22.575630127805045,
    "lng": 88.35536858049801
  },
  {
    "name": "Dr. Sunita Sharma",
    "specialty": "Dermatology",
    "clinic": "Sharma Health Clinic",
    "address": "13 Bengaluru Main Road",
    "city": "Bengaluru",
    "state": "India",
    "pincode": 613244,
    "phone": "+91-9079410835",
    "lat": 12.987874883413893,
    "lng": 77.59539819516021
  },
  {
    "name": "Dr. Priya Kulkarni",
    "specialty": "Dermatology",
    "clinic": "Kulkarni Health Clinic",
    "address": "110 Chennai Main Road",
    "city": "Chennai",
    "state": "India",
    "pincode": 973409,
    "phone": "+91-9531245461",
    "lat": 13.065258587383918,
    "lng": 80.26297457011998
  },
  {
    "name": "Dr. Vikram Shah",
    "specialty": "Dermatology",
    "clinic": "Shah Health Clinic",
    "address": "136 Chennai Main Road",
    "city": "Chennai",
    "state": "India",
    "pincode": 495668,
    "phone": "+91-9109485331",
    "lat": 13.095546917845727,
    "lng": 80.2649157347387
  },
  {
    "name": "Dr. Sayan Sengupta",
    "specialty": "Dermatology",
    "clinic": "Sengupta Health Clinic",
    "address": "93 Chennai Main Road",
    "city": "Chennai",
    "state": "India",
    "pincode": 968021,
    "phone": "+91-6987892773",
    "lat": 13.08125433556463,
    "lng": 80.25855240166477
  },
  {
    "name": "Dr. Rita Shah",
    "specialty": "Dermatology",
    "clinic": "Shah Health Clinic",
    "address": "179 Chennai Main Road",
    "city": "Chennai",
    "state": "India",
    "pincode": 633893,
    "phone": "+91-7504751282",
    "lat": 13.101001112641926,
    "lng": 80.26859520465656
  },
  {
    "name": "Dr. Rita Shah",
    "specialty": "Dermatology",
    "clinic": "Shah Health Clinic",
    "address": "135 Jaipur Main Road",
    "city": "Jaipur",
    "state": "India",
    "pincode": 652308,
    "phone": "+91-7877072416",
    "lat": 26.906813694557744,
    "lng": 75.77913431539544
  },
  {
    "name": "Dr. Meera Patel",
    "specialty": "Dermatology",
    "clinic": "Patel Health Clinic",
    "address": "128 Pune Main Road",
    "city": "Pune",
    "state": "India",
    "pincode": 329514,
    "phone": "+91-8401723900",
    "lat": 18.501285589595298,
    "lng": 73.84444870803293
  },
  {
    "name": "Dr. Arjun Reddy",
    "specialty": "Dermatology",
    "clinic": "Reddy Health Clinic",
    "address": "27 Pune Main Road",
    "city": "Pune",
    "state": "India",
    "pincode": 451919,
    "phone": "+91-9209599829",
    "lat": 18.51892532661313,
    "lng": 73.84142162043081
  },
  {
    "name": "Dr. Rupal Ghosh",
    "specialty": "Dermatology",
    "clinic": "Ghosh Health Clinic",
    "address": "121 Delhi Main Road",
    "city": "Delhi",
    "state": "India",
    "pincode": 467709,
    "phone": "+91-8882023736",
    "lat": 28.68997120187042,
    "lng": 77.11082475930714
  },
  {
    "name": "Dr. Rajesh Sharma",
    "specialty": "Dermatology",
    "clinic": "Sharma Health Clinic",
    "address": "10 Chennai Main Road",
    "city": "Chennai",
    "state": "India",
    "pincode": 965733,
    "phone": "+91-9210337405",
    "lat": 13.10077287989218,
    "lng": 80.25910324931282
  },
  {
    "name": "Dr. Rupal Khan",
    "specialty": "Dermatology",
    "clinic": "Khan Health Clinic",
    "address": "95 Hyderabad Main Road",
    "city": "Hyderabad",
    "state": "India",
    "pincode": 798569,
    "phone": "+91-7208634371",
    "lat": 17.375497245869266,
    "lng": 78.49847427655408
  },
  {
    "name": "Dr. Aditi Patel",
    "specialty": "Dermatology",
    "clinic": "Patel Health Clinic",
    "address": "112 Delhi Main Road",
    "city": "Delhi",
    "state": "India",
    "pincode": 579620,
    "phone": "+91-6779018917",
    "lat": 28.695140063175714,
    "lng": 77.10622195222913
  },
  {
    "name": "Dr. Priya Krishnan",
    "specialty": "Dermatology",
    "clinic": "Krishnan Health Clinic",
    "address": "145 Delhi Main Road",
    "city": "Delhi",
    "state": "India",
    "pincode": 236176,
    "phone": "+91-6452128043",
    "lat": 28.690382686053358,
    "lng": 77.08909774688239
  },
  {
    "name": "Dr. Rohan Verma",
    "specialty": "Dermatology",
    "clinic": "Verma Health Clinic",
    "address": "42 Ahmedabad Main Road",
    "city": "Ahmedabad",
    "state": "India",
    "pincode": 422707,
    "phone": "+91-7018543071",
    "lat": 23.005896437909296,
    "lng": 72.56916447836086
  },
  {
    "name": "Dr. Nirmala Rao",
    "specialty": "Dermatology",
    "clinic": "Rao Health Clinic",
    "address": "112 Jaipur Main Road",
    "city": "Jaipur",
    "state": "India",
    "pincode": 230921,
    "phone": "+91-8555147279",
    "lat": 26.92349631675501,
    "lng": 75.79407388436513
  },
  {
    "name": "Dr. Anil Mehta",
    "specialty": "Dermatology",
    "clinic": "Mehta Health Clinic",
    "address": "87 Delhi Main Road",
    "city": "Delhi",
    "state": "India",
    "pincode": 160733,
    "phone": "+91-8040685552",
    "lat": 28.709700499191296,
    "lng": 77.1158959824395
  },
  {
    "name": "Dr. Hina Krishnan",
    "specialty": "Dermatology",
    "clinic": "Krishnan Health Clinic",
    "address": "106 Jaipur Main Road",
    "city": "Jaipur",
    "state": "India",
    "pincode": 882092,
    "phone": "+91-9962289145",
    "lat": 26.896533465509965,
    "lng": 75.78142719289798
  },
  {
    "name": "Dr. Sneha Singh",
    "specialty": "Dermatology",
    "clinic": "Singh Health Clinic",
    "address": "117 Pune Main Road",
    "city": "Pune",
    "state": "India",
    "pincode": 331510,
    "phone": "+91-6599466535",
    "lat": 18.502375605765973,
    "lng": 73.83798016208914
  },
  {
    "name": "Dr. Hina Reddy",
    "specialty": "Dermatology",
    "clinic": "Reddy Health Clinic",
    "address": "36 Mumbai Main Road",
    "city": "Mumbai",
    "state": "India",
    "pincode": 836401,
    "phone": "+91-7502964429",
    "lat": 19.072433735552007,
    "lng": 72.87440681436254
  },
  {
    "name": "Dr. Sunita Ghosh",
    "specialty": "Dermatology",
    "clinic": "Ghosh Health Clinic",
    "address": "78 Lucknow Main Road",
    "city": "Lucknow",
    "state": "India",
    "pincode": 622467,
    "phone": "+91-8185866141",
    "lat": 26.82859740945529,
    "lng": 80.95961969621533
  },
  {
    "name": "Dr. Manish Das",
    "specialty": "Dermatology",
    "clinic": "Das Health Clinic",
    "address": "117 Kolkata Main Road",
    "city": "Kolkata",
    "state": "India",
    "pincode": 707980,
    "phone": "+91-7701803848",
    "lat": 22.57648733472648,
    "lng": 88.35851065779428
  },
  {
    "name": "Dr. Nirmala Shah",
    "specialty": "Dermatology",
    "clinic": "Shah Health Clinic",
    "address": "18 Jaipur Main Road",
    "city": "Jaipur",
    "state": "India",
    "pincode": 812188,
    "phone": "+91-9501888111",
    "lat": 26.901419692633944,
    "lng": 75.80249212937217
  },
  {
    "name": "Dr. Latha Patel",
    "specialty": "Dermatology",
    "clinic": "Patel Health Clinic",
    "address": "149 Ahmedabad Main Road",
    "city": "Ahmedabad",
    "state": "India",
    "pincode": 897485,
    "phone": "+91-6162925464",
    "lat": 23.009707292526546,
    "lng": 72.59094372148876
  },
  {
    "name": "Dr. Ritu Sharma",
    "specialty": "Dermatology",
    "clinic": "Sharma Health Clinic",
    "address": "55 Kolkata Main Road",
    "city": "Kolkata",
    "state": "India",
    "pincode": 256375,
    "phone": "+91-8626989912",
    "lat": 22.568162074308745,
    "lng": 88.36929341257627
  },
  {
    "name": "Dr. Ritu Banerjee",
    "specialty": "Dermatology",
    "clinic": "Banerjee Health Clinic",
    "address": "128 Kolkata Main Road",
    "city": "Kolkata",
    "state": "India",
    "pincode": 485406,
    "phone": "+91-8021335296",
    "lat": 22.589272153147462,
    "lng": 88.35339018308883
  },
  {
    "name": "Dr. Farheen Shah",
    "specialty": "Dermatology",
    "clinic": "Shah Health Clinic",
    "address": "77 Bengaluru Main Road",
    "city": "Bengaluru",
    "state": "India",
    "pincode": 374228,
    "phone": "+91-8590176832",
    "lat": 12.957880376974263,
    "lng": 77.58958523627753
  },
  {
    "name": "Dr. Hina Verma",
    "specialty": "Dermatology",
    "clinic": "Verma Health Clinic",
    "address": "120 Delhi Main Road",
    "city": "Delhi",
    "state": "India",
    "pincode": 321382,
    "phone": "+91-9106337014",
    "lat": 28.706035092922903,
    "lng": 77.0849583116962
  },
  {
    "name": "Dr. Farheen Rao",
    "specialty": "Dermatology",
    "clinic": "Rao Health Clinic",
    "address": "122 Kolkata Main Road",
    "city": "Kolkata",
    "state": "India",
    "pincode": 362936,
    "phone": "+91-8414285211",
    "lat": 22.566488235367324,
    "lng": 88.38318311931998
  },
  {
    "name": "Dr. Nidhi Shah",
    "specialty": "Dermatology",
    "clinic": "Shah Health Clinic",
    "address": "14 Kolkata Main Road",
    "city": "Kolkata",
    "state": "India",
    "pincode": 400566,
    "phone": "+91-8055201950",
    "lat": 22.558023707408207,
    "lng": 88.36507356557114
  },
  {
    "name": "Dr. Hina Khan",
    "specialty": "Dermatology",
    "clinic": "Khan Health Clinic",
    "address": "69 Kolkata Main Road",
    "city": "Kolkata",
    "state": "India",
    "pincode": 908032,
    "phone": "+91-8523143452",
    "lat": 22.58097728892808,
    "lng": 88.36327146858265
  },
  {
    "name": "Dr. Aditi Ghosh",
    "specialty": "Dermatology",
    "clinic": "Ghosh Health Clinic",
    "address": "30 Ahmedabad Main Road",
    "city": "Ahmedabad",
    "state": "India",
    "pincode": 216958,
    "phone": "+91-6509067383",
    "lat": 23.042297820543837,
    "lng": 72.58092782067628
  },
  {
    "name": "Dr. Rita Sengupta",
    "specialty": "Dermatology",
    "clinic": "Sengupta Health Clinic",
    "address": "18 Kolkata Main Road",
    "city": "Kolkata",
    "state": "India",
    "pincode": 539021,
    "phone": "+91-6628642032",
    "lat": 22.55561453338345,
    "lng": 88.37179783696395
  },
  {
    "name": "Dr. Hina Reddy",
    "specialty": "Dermatology",
    "clinic": "Reddy Health Clinic",
    "address": "67 Hyderabad Main Road",
    "city": "Hyderabad",
    "state": "India",
    "pincode": 858636,
    "phone": "+91-6577925149",
    "lat": 17.387185315004636,
    "lng": 78.47517835713428
  },
  {
    "name": "Dr. Kavita Ghosh",
    "specialty": "Dermatology",
    "clinic": "Ghosh Health Clinic",
    "address": "68 Kolkata Main Road",
    "city": "Kolkata",
    "state": "India",
    "pincode": 874274,
    "phone": "+91-8225480964",
    "lat": 22.56796805492075,
    "lng": 88.35633364627404
  },
  {
    "name": "Dr. Rita Shah",
    "specialty": "Dermatology",
    "clinic": "Shah Health Clinic",
    "address": "53 Kolkata Main Road",
    "city": "Kolkata",
    "state": "India",
    "pincode": 198882,
    "phone": "+91-7168922504",
    "lat": 22.56961201609606,
    "lng": 88.36571391008128
  },
  {
    "name": "Dr. Manish Mehta",
    "specialty": "Dermatology",
    "clinic": "Mehta Health Clinic",
    "address": "66 Chennai Main Road",
    "city": "Chennai",
    "state": "India",
    "pincode": 404083,
    "phone": "+91-6223594454",
    "lat": 13.086171625400452,
    "lng": 80.28241317468196
  },
  {
    "name": "Dr. Sayan Khan",
    "specialty": "Orthopedics",
    "clinic": "Khan Health Clinic",
    "address": "138 Mumbai Main Road",
    "city": "Mumbai",
    "state": "India",
    "pincode": 280290,
    "phone": "+91-6206977230",
    "lat": 19.07485864481443,
    "lng": 72.87924814888929
  },
  {
    "name": "Dr. Rita Singh",
    "specialty": "Orthopedics",
    "clinic": "Singh Health Clinic",
    "address": "102 Delhi Main Road",
    "city": "Delhi",
    "state": "India",
    "pincode": 684347,
    "phone": "+91-7498864376",
    "lat": 28.705670137011467,
    "lng": 77.10266953639673
  },
  {
    "name": "Dr. Nirmala Shah",
    "specialty": "Orthopedics",
    "clinic": "Shah Health Clinic",
    "address": "105 Lucknow Main Road",
    "city": "Lucknow",
    "state": "India",
    "pincode": 655322,
    "phone": "+91-9599105397",
    "lat": 26.834103191953215,
    "lng": 80.9458974811746
  },
  {
    "name": "Dr. Anirban Chakraborty",
    "specialty": "Orthopedics",
    "clinic": "Chakraborty Health Clinic",
    "address": "55 Delhi Main Road",
    "city": "Delhi",
    "state": "India",
    "pincode": 792550,
    "phone": "+91-9795639986",
    "lat": 28.694503786343134,
    "lng": 77.1104920258675
  },
  {
    "name": "Dr. Kavita Shah",
    "specialty": "Orthopedics",
    "clinic": "Shah Health Clinic",
    "address": "150 Hyderabad Main Road",
    "city": "Hyderabad",
    "state": "India",
    "pincode": 881589,
    "phone": "+91-7380506695",
    "lat": 17.388460529761044,
    "lng": 78.49099741537195
  },
  {
    "name": "Dr. Nidhi Khan",
    "specialty": "Orthopedics",
    "clinic": "Khan Health Clinic",
    "address": "129 Hyderabad Main Road",
    "city": "Hyderabad",
    "state": "India",
    "pincode": 812473,
    "phone": "+91-9507000000",
    "lat": 17.393507156138345,
    "lng": 78.50658337937898
  },
  {
    "name": "Dr. Nirmala Kulkarni",
    "specialty": "Orthopedics",
    "clinic": "Kulkarni Health Clinic",
    "address": "27 Kolkata Main Road",
    "city": "Kolkata",
    "state": "India",
    "pincode": 341819,
    "phone": "+91-9748911948",
    "lat": 22.58769919628981,
    "lng": 88.35861259863914
  },
  {
    "name": "Dr. Kavita Kulkarni",
    "specialty": "Orthopedics",
    "clinic": "Kulkarni Health Clinic",
    "address": "67 Delhi Main Road",
    "city": "Delhi",
    "state": "India",
    "pincode": 144494,
    "phone": "+91-6265395523",
    "lat": 28.685111353392198,
    "lng": 77.08744329118682
  },
  {
    "name": "Dr. Sayan Krishnan",
    "specialty": "Orthopedics",
    "clinic": "Krishnan Health Clinic",
    "address": "126 Chennai Main Road",
    "city": "Chennai",
    "state": "India",
    "pincode": 433606,
    "phone": "+91-6517979058",
    "lat": 13.08753698311744,
    "lng": 80.26934938161713
  },
  {
    "name": "Dr. Rohan Rao",
    "specialty": "Orthopedics",
    "clinic": "Rao Health Clinic",
    "address": "15 Chennai Main Road",
    "city": "Chennai",
    "state": "India",
    "pincode": 260377,
    "phone": "+91-8649855847",
    "lat": 13.08273479461723,
    "lng": 80.2846794004327
  },
  {
    "name": "Dr. Arjun Sharma",
    "specialty": "Orthopedics",
    "clinic": "Sharma Health Clinic",
    "address": "48 Kolkata Main Road",
    "city": "Kolkata",
    "state": "India",
    "pincode": 941737,
    "phone": "+91-7072016064",
    "lat": 22.586033310055335,
    "lng": 88.35194324127548
  },
  {
    "name": "Dr. Jay Verma",
    "specialty": "Orthopedics",
    "clinic": "Verma Health Clinic",
    "address": "122 Mumbai Main Road",
    "city": "Mumbai",
    "state": "India",
    "pincode": 476791,
    "phone": "+91-7561129191",
    "lat": 19.091317826078395,
    "lng": 72.86499506022115
  },
  {
    "name": "Dr. Rita Sengupta",
    "specialty": "Orthopedics",
    "clinic": "Sengupta Health Clinic",
    "address": "31 Jaipur Main Road",
    "city": "Jaipur",
    "state": "India",
    "pincode": 966996,
    "phone": "+91-7230027756",
    "lat": 26.90215847260243,
    "lng": 75.780613738703
  },
  {
    "name": "Dr. Manish Banerjee",
    "specialty": "Orthopedics",
    "clinic": "Banerjee Health Clinic",
    "address": "67 Bengaluru Main Road",
    "city": "Bengaluru",
    "state": "India",
    "pincode": 156718,
    "phone": "+91-6780719393",
    "lat": 12.958400293799523,
    "lng": 77.59148425910413
  },
  {
    "name": "Dr. Rajesh Mehta",
    "specialty": "Orthopedics",
    "clinic": "Mehta Health Clinic",
    "address": "173 Ahmedabad Main Road",
    "city": "Ahmedabad",
    "state": "India",
    "pincode": 933067,
    "phone": "+91-6152083554",
    "lat": 23.03556511016643,
    "lng": 72.58576284127976
  },
  {
    "name": "Dr. Sneha Shah",
    "specialty": "Orthopedics",
    "clinic": "Shah Health Clinic",
    "address": "85 Ahmedabad Main Road",
    "city": "Ahmedabad",
    "state": "India",
    "pincode": 384365,
    "phone": "+91-8466344414",
    "lat": 23.006461921119058,
    "lng": 72.55450132976301
  },
  {
    "name": "Dr. Rita Sengupta",
    "specialty": "Orthopedics",
    "clinic": "Sengupta Health Clinic",
    "address": "88 Bengaluru Main Road",
    "city": "Bengaluru",
    "state": "India",
    "pincode": 949005,
    "phone": "+91-8137515207",
    "lat": 12.966054515143572,
    "lng": 77.61010284336173
  },
  {
    "name": "Dr. Priya Krishnan",
    "specialty": "Orthopedics",
    "clinic": "Krishnan Health Clinic",
    "address": "169 Chennai Main Road",
    "city": "Chennai",
    "state": "India",
    "pincode": 639391,
    "phone": "+91-6224971829",
    "lat": 13.087908211781496,
    "lng": 80.28911126297811
  },
  {
    "name": "Dr. Kavita Chakraborty",
    "specialty": "Orthopedics",
    "clinic": "Chakraborty Health Clinic",
    "address": "190 Mumbai Main Road",
    "city": "Mumbai",
    "state": "India",
    "pincode": 777119,
    "phone": "+91-6343652923",
    "lat": 19.09221470336736,
    "lng": 72.88528124545017
  },
  {
    "name": "Dr. Nidhi Verma",
    "specialty": "Orthopedics",
    "clinic": "Verma Health Clinic",
    "address": "171 Jaipur Main Road",
    "city": "Jaipur",
    "state": "India",
    "pincode": 319396,
    "phone": "+91-8291438200",
    "lat": 26.90771113981837,
    "lng": 75.76989242629251
  },
  {
    "name": "Dr. Sneha Das",
    "specialty": "Orthopedics",
    "clinic": "Das Health Clinic",
    "address": "10 Chennai Main Road",
    "city": "Chennai",
    "state": "India",
    "pincode": 133396,
    "phone": "+91-7697016639",
    "lat": 13.100893638706225,
    "lng": 80.26642486757389
  },
  {
    "name": "Dr. Rohan Krishnan",
    "specialty": "Orthopedics",
    "clinic": "Krishnan Health Clinic",
    "address": "126 Chennai Main Road",
    "city": "Chennai",
    "state": "India",
    "pincode": 104471,
    "phone": "+91-6282160698",
    "lat": 13.064390286858576,
    "lng": 80.26389488553255
  },
  {
    "name": "Dr. Nirmala Das",
    "specialty": "Orthopedics",
    "clinic": "Das Health Clinic",
    "address": "193 Jaipur Main Road",
    "city": "Jaipur",
    "state": "India",
    "pincode": 505861,
    "phone": "+91-6199474589",
    "lat": 26.928493643792592,
    "lng": 75.78646662563781
  },
  {
    "name": "Dr. Meera Das",
    "specialty": "Orthopedics",
    "clinic": "Das Health Clinic",
    "address": "112 Delhi Main Road",
    "city": "Delhi",
    "state": "India",
    "pincode": 164291,
    "phone": "+91-9873328525",
    "lat": 28.709972635442874,
    "lng": 77.1198673200601
  },
  {
    "name": "Dr. Farheen Sharma",
    "specialty": "Orthopedics",
    "clinic": "Sharma Health Clinic",
    "address": "158 Bengaluru Main Road",
    "city": "Bengaluru",
    "state": "India",
    "pincode": 955990,
    "phone": "+91-6406252817",
    "lat": 12.981209074554908,
    "lng": 77.57930050606448
  },
  {
    "name": "Dr. Sayan Verma",
    "specialty": "Orthopedics",
    "clinic": "Verma Health Clinic",
    "address": "136 Delhi Main Road",
    "city": "Delhi",
    "state": "India",
    "pincode": 421922,
    "phone": "+91-6889995028",
    "lat": 28.684279167186823,
    "lng": 77.09106247195082
  },
  {
    "name": "Dr. Anil Sengupta",
    "specialty": "Orthopedics",
    "clinic": "Sengupta Health Clinic",
    "address": "94 Mumbai Main Road",
    "city": "Mumbai",
    "state": "India",
    "pincode": 982740,
    "phone": "+91-8185546294",
    "lat": 19.094346172951717,
    "lng": 72.86781191546676
  },
  {
    "name": "Dr. Sneha Verma",
    "specialty": "Orthopedics",
    "clinic": "Verma Health Clinic",
    "address": "194 Lucknow Main Road",
    "city": "Lucknow",
    "state": "India",
    "pincode": 515747,
    "phone": "+91-9099549081",
    "lat": 26.845401045632308,
    "lng": 80.95642467133092
  },
  {
    "name": "Dr. Aditi Rao",
    "specialty": "Orthopedics",
    "clinic": "Rao Health Clinic",
    "address": "82 Chennai Main Road",
    "city": "Chennai",
    "state": "India",
    "pincode": 425835,
    "phone": "+91-6544699206",
    "lat": 13.098635206349114,
    "lng": 80.25331299350617
  },
  {
    "name": "Dr. Nidhi Reddy",
    "specialty": "Orthopedics",
    "clinic": "Reddy Health Clinic",
    "address": "144 Mumbai Main Road",
    "city": "Mumbai",
    "state": "India",
    "pincode": 524861,
    "phone": "+91-8571032805",
    "lat": 19.092759784425706,
    "lng": 72.89197356735377
  },
  {
    "name": "Dr. Anirban Banerjee",
    "specialty": "Orthopedics",
    "clinic": "Banerjee Health Clinic",
    "address": "138 Bengaluru Main Road",
    "city": "Bengaluru",
    "state": "India",
    "pincode": 124039,
    "phone": "+91-6025113133",
    "lat": 12.974087491387925,
    "lng": 77.58749436182912
  },
  {
    "name": "Dr. Rajesh Banerjee",
    "specialty": "Orthopedics",
    "clinic": "Banerjee Health Clinic",
    "address": "105 Delhi Main Road",
    "city": "Delhi",
    "state": "India",
    "pincode": 495143,
    "phone": "+91-7146584490",
    "lat": 28.712913229626746,
    "lng": 77.1214413748815
  },
  {
    "name": "Dr. Manish Khan",
    "specialty": "Orthopedics",
    "clinic": "Khan Health Clinic",
    "address": "101 Bengaluru Main Road",
    "city": "Bengaluru",
    "state": "India",
    "pincode": 235143,
    "phone": "+91-9424802727",
    "lat": 12.976861434833602,
    "lng": 77.60158194474562
  },
  {
    "name": "Dr. Sunita Kulkarni",
    "specialty": "Orthopedics",
    "clinic": "Kulkarni Health Clinic",
    "address": "107 Mumbai Main Road",
    "city": "Mumbai",
    "state": "India",
    "pincode": 731850,
    "phone": "+91-7270864344",
    "lat": 19.083182222070523,
    "lng": 72.8876916846939
  },
  {
    "name": "Dr. Ritu Shah",
    "specialty": "Orthopedics",
    "clinic": "Shah Health Clinic",
    "address": "180 Lucknow Main Road",
    "city": "Lucknow",
    "state": "India",
    "pincode": 461702,
    "phone": "+91-9303732445",
    "lat": 26.842591596302494,
    "lng": 80.92816593917755
  },
  {
    "name": "Dr. Latha Mehta",
    "specialty": "Orthopedics",
    "clinic": "Mehta Health Clinic",
    "address": "122 Lucknow Main Road",
    "city": "Lucknow",
    "state": "India",
    "pincode": 698930,
    "phone": "+91-8152440611",
    "lat": 26.828022807339625,
    "lng": 80.93473339068089
  },
  {
    "name": "Dr. Nidhi Shah",
    "specialty": "Orthopedics",
    "clinic": "Shah Health Clinic",
    "address": "80 Ahmedabad Main Road",
    "city": "Ahmedabad",
    "state": "India",
    "pincode": 530265,
    "phone": "+91-7538221514",
    "lat": 23.009842569701814,
    "lng": 72.58942897910175
  },
  {
    "name": "Dr. Vikram Rao",
    "specialty": "Orthopedics",
    "clinic": "Rao Health Clinic",
    "address": "193 Lucknow Main Road",
    "city": "Lucknow",
    "state": "India",
    "pincode": 238080,
    "phone": "+91-9955029153",
    "lat": 26.841988625707412,
    "lng": 80.92980782542787
  },
  {
    "name": "Dr. Nidhi Patel",
    "specialty": "Orthopedics",
    "clinic": "Patel Health Clinic",
    "address": "29 Hyderabad Main Road",
    "city": "Hyderabad",
    "state": "India",
    "pincode": 998273,
    "phone": "+91-8538050311",
    "lat": 17.38175562506604,
    "lng": 78.47541407976284
  },
  {
    "name": "Dr. Sunita Singh",
    "specialty": "Orthopedics",
    "clinic": "Singh Health Clinic",
    "address": "110 Pune Main Road",
    "city": "Pune",
    "state": "India",
    "pincode": 844303,
    "phone": "+91-8191196434",
    "lat": 18.511465610175705,
    "lng": 73.8465342480316
  },
  {
    "name": "Dr. Manish Sengupta",
    "specialty": "Orthopedics",
    "clinic": "Sengupta Health Clinic",
    "address": "50 Jaipur Main Road",
    "city": "Jaipur",
    "state": "India",
    "pincode": 696110,
    "phone": "+91-6934968161",
    "lat": 26.916773268368374,
    "lng": 75.79312688202144
  },
  {
    "name": "Dr. Latha Verma",
    "specialty": "Orthopedics",
    "clinic": "Verma Health Clinic",
    "address": "76 Kolkata Main Road",
    "city": "Kolkata",
    "state": "India",
    "pincode": 621344,
    "phone": "+91-7784316378",
    "lat": 22.557964143930512,
    "lng": 88.37346560235883
  },
  {
    "name": "Dr. Rita Ghosh",
    "specialty": "Orthopedics",
    "clinic": "Ghosh Health Clinic",
    "address": "105 Hyderabad Main Road",
    "city": "Hyderabad",
    "state": "India",
    "pincode": 454800,
    "phone": "+91-9291480454",
    "lat": 17.38958711783318,
    "lng": 78.47251669951537
  },
  {
    "name": "Dr. Priya Ghosh",
    "specialty": "Orthopedics",
    "clinic": "Ghosh Health Clinic",
    "address": "71 Delhi Main Road",
    "city": "Delhi",
    "state": "India",
    "pincode": 820817,
    "phone": "+91-6009929260",
    "lat": 28.693076691560268,
    "lng": 77.08674992885915
  },
  {
    "name": "Dr. Sayan Shah",
    "specialty": "Orthopedics",
    "clinic": "Shah Health Clinic",
    "address": "77 Lucknow Main Road",
    "city": "Lucknow",
    "state": "India",
    "pincode": 923826,
    "phone": "+91-7444241219",
    "lat": 26.85843533539255,
    "lng": 80.93955533421385
  },
  {
    "name": "Dr. Arjun Mehta",
    "specialty": "Orthopedics",
    "clinic": "Mehta Health Clinic",
    "address": "129 Ahmedabad Main Road",
    "city": "Ahmedabad",
    "state": "India",
    "pincode": 150743,
    "phone": "+91-7711119828",
    "lat": 23.02686972540443,
    "lng": 72.58424454343886
  },
  {
    "name": "Dr. Manish Kulkarni",
    "specialty": "Orthopedics",
    "clinic": "Kulkarni Health Clinic",
    "address": "164 Mumbai Main Road",
    "city": "Mumbai",
    "state": "India",
    "pincode": 894060,
    "phone": "+91-8425115639",
    "lat": 19.073925696062613,
    "lng": 72.88690617539191
  },
  {
    "name": "Dr. Nirmala Shah",
    "specialty": "Orthopedics",
    "clinic": "Shah Health Clinic",
    "address": "140 Lucknow Main Road",
    "city": "Lucknow",
    "state": "India",
    "pincode": 917664,
    "phone": "+91-9760891358",
    "lat": 26.853166690000332,
    "lng": 80.96110887239374
  },
  {
    "name": "Dr. Aditi Das",
    "specialty": "Orthopedics",
    "clinic": "Das Health Clinic",
    "address": "147 Hyderabad Main Road",
    "city": "Hyderabad",
    "state": "India",
    "pincode": 896140,
    "phone": "+91-8426460170",
    "lat": 17.38791676088598,
    "lng": 78.47111454374767
  },
  {
    "name": "Dr. Jay Das",
    "specialty": "Orthopedics",
    "clinic": "Das Health Clinic",
    "address": "70 Jaipur Main Road",
    "city": "Jaipur",
    "state": "India",
    "pincode": 805078,
    "phone": "+91-9724591759",
    "lat": 26.923953647782714,
    "lng": 75.78857962715914
  },
  {
    "name": "Dr. Rita Chakraborty",
    "specialty": "Orthopedics",
    "clinic": "Chakraborty Health Clinic",
    "address": "51 Ahmedabad Main Road",
    "city": "Ahmedabad",
    "state": "India",
    "pincode": 567139,
    "phone": "+91-7451860901",
    "lat": 23.004568835575338,
    "lng": 72.58800748205063
  },
  {
    "name": "Dr. Hina Shah",
    "specialty": "Orthopedics",
    "clinic": "Shah Health Clinic",
    "address": "108 Jaipur Main Road",
    "city": "Jaipur",
    "state": "India",
    "pincode": 473291,
    "phone": "+91-9303120265",
    "lat": 26.91786478397417,
    "lng": 75.80070074730355
  },
  {
    "name": "Dr. Rita Das",
    "specialty": "Orthopedics",
    "clinic": "Das Health Clinic",
    "address": "120 Bengaluru Main Road",
    "city": "Bengaluru",
    "state": "India",
    "pincode": 266398,
    "phone": "+91-7835746099",
    "lat": 12.972649232327907,
    "lng": 77.59902388092367
  },
  {
    "name": "Dr. Latha Singh",
    "specialty": "Orthopedics",
    "clinic": "Singh Health Clinic",
    "address": "95 Kolkata Main Road",
    "city": "Kolkata",
    "state": "India",
    "pincode": 894948,
    "phone": "+91-7878836096",
    "lat": 22.55757211206729,
    "lng": 88.36109451079327
  },
  {
    "name": "Dr. Aditi Khan",
    "specialty": "Orthopedics",
    "clinic": "Khan Health Clinic",
    "address": "51 Jaipur Main Road",
    "city": "Jaipur",
    "state": "India",
    "pincode": 458879,
    "phone": "+91-8944950278",
    "lat": 26.92120321392805,
    "lng": 75.78829119484925
  },
  {
    "name": "Dr. Latha Reddy",
    "specialty": "Orthopedics",
    "clinic": "Reddy Health Clinic",
    "address": "13 Hyderabad Main Road",
    "city": "Hyderabad",
    "state": "India",
    "pincode": 156872,
    "phone": "+91-6470111347",
    "lat": 17.37375713865176,
    "lng": 78.48131136772889
  },
  {
    "name": "Dr. Priya Verma",
    "specialty": "Orthopedics",
    "clinic": "Verma Health Clinic",
    "address": "90 Chennai Main Road",
    "city": "Chennai",
    "state": "India",
    "pincode": 476428,
    "phone": "+91-9906114076",
    "lat": 13.075501936605681,
    "lng": 80.26065636961958
  },
  {
    "name": "Dr. Ritu Khan",
    "specialty": "Orthopedics",
    "clinic": "Khan Health Clinic",
    "address": "193 Jaipur Main Road",
    "city": "Jaipur",
    "state": "India",
    "pincode": 452352,
    "phone": "+91-9176651346",
    "lat": 26.905537594780967,
    "lng": 75.78702862922216
  },
  {
    "name": "Dr. Sneha Khan",
    "specialty": "Orthopedics",
    "clinic": "Khan Health Clinic",
    "address": "42 Ahmedabad Main Road",
    "city": "Ahmedabad",
    "state": "India",
    "pincode": 695802,
    "phone": "+91-8661746547",
    "lat": 23.041662481179834,
    "lng": 72.55528157950828
  },
  {
    "name": "Dr. Sayan Das",
    "specialty": "Orthopedics",
    "clinic": "Das Health Clinic",
    "address": "32 Mumbai Main Road",
    "city": "Mumbai",
    "state": "India",
    "pincode": 925068,
    "phone": "+91-7716340712",
    "lat": 19.057123224630594,
    "lng": 72.85809844752826
  },
  {
    "name": "Dr. Anirban Khan",
    "specialty": "Orthopedics",
    "clinic": "Khan Health Clinic",
    "address": "30 Lucknow Main Road",
    "city": "Lucknow",
    "state": "India",
    "pincode": 936397,
    "phone": "+91-6011519901",
    "lat": 26.859332308415603,
    "lng": 80.96384178788725
  },
  {
    "name": "Dr. Kavita Krishnan",
    "specialty": "Orthopedics",
    "clinic": "Krishnan Health Clinic",
    "address": "110 Kolkata Main Road",
    "city": "Kolkata",
    "state": "India",
    "pincode": 471829,
    "phone": "+91-9150536703",
    "lat": 22.565452530136092,
    "lng": 88.38262772363116
  },
  {
    "name": "Dr. Farheen Khan",
    "specialty": "Gynecology",
    "clinic": "Khan Health Clinic",
    "address": "13 Hyderabad Main Road",
    "city": "Hyderabad",
    "state": "India",
    "pincode": 794939,
    "phone": "+91-9721849750",
    "lat": 17.387687378180168,
    "lng": 78.50171309031926
  },
  {
    "name": "Dr. Vikram Rao",
    "specialty": "Gynecology",
    "clinic": "Rao Health Clinic",
    "address": "120 Hyderabad Main Road",
    "city": "Hyderabad",
    "state": "India",
    "pincode": 542428,
    "phone": "+91-8799020499",
    "lat": 17.38422468972722,
    "lng": 78.49101560285249
  },
  {
    "name": "Dr. Nirmala Verma",
    "specialty": "Gynecology",
    "clinic": "Verma Health Clinic",
    "address": "10 Pune Main Road",
    "city": "Pune",
    "state": "India",
    "pincode": 161075,
    "phone": "+91-9012602242",
    "lat": 18.516018207835973,
    "lng": 73.8403746866588
  },
  {
    "name": "Dr. Manish Singh",
    "specialty": "Gynecology",
    "clinic": "Singh Health Clinic",
    "address": "179 Lucknow Main Road",
    "city": "Lucknow",
    "state": "India",
    "pincode": 523011,
    "phone": "+91-7694832856",
    "lat": 26.8665426703522,
    "lng": 80.94254577974631
  },
  {
    "name": "Dr. Nidhi Singh",
    "specialty": "Gynecology",
    "clinic": "Singh Health Clinic",
    "address": "144 Lucknow Main Road",
    "city": "Lucknow",
    "state": "India",
    "pincode": 762736,
    "phone": "+91-8457759237",
    "lat": 26.8329466698504,
    "lng": 80.93118139762005
  },
  {
    "name": "Dr. Rita Khan",
    "specialty": "Gynecology",
    "clinic": "Khan Health Clinic",
    "address": "86 Lucknow Main Road",
    "city": "Lucknow",
    "state": "India",
    "pincode": 763198,
    "phone": "+91-8929293437",
    "lat": 26.852070350300345,
    "lng": 80.9525456880526
  },
  {
    "name": "Dr. Sunita Shah",
    "specialty": "Gynecology",
    "clinic": "Shah Health Clinic",
    "address": "94 Kolkata Main Road",
    "city": "Kolkata",
    "state": "India",
    "pincode": 536874,
    "phone": "+91-9068838764",
    "lat": 22.571749486563537,
    "lng": 88.37751431883102
  },
  {
    "name": "Dr. Farheen Kulkarni",
    "specialty": "Gynecology",
    "clinic": "Kulkarni Health Clinic",
    "address": "195 Bengaluru Main Road",
    "city": "Bengaluru",
    "state": "India",
    "pincode": 741559,
    "phone": "+91-8480584377",
    "lat": 12.986661251362854,
    "lng": 77.59540635301198
  },
  {
    "name": "Dr. Priya Banerjee",
    "specialty": "Gynecology",
    "clinic": "Banerjee Health Clinic",
    "address": "62 Mumbai Main Road",
    "city": "Mumbai",
    "state": "India",
    "pincode": 693535,
    "phone": "+91-8287009073",
    "lat": 19.060286627628003,
    "lng": 72.88336260886119
  },
  {
    "name": "Dr. Ritu Sengupta",
    "specialty": "Gynecology",
    "clinic": "Sengupta Health Clinic",
    "address": "165 Jaipur Main Road",
    "city": "Jaipur",
    "state": "India",
    "pincode": 796493,
    "phone": "+91-8467464581",
    "lat": 26.921324703178747,
    "lng": 75.78498318406922
  },
  {
    "name": "Dr. Meera Verma",
    "specialty": "Gynecology",
    "clinic": "Verma Health Clinic",
    "address": "108 Hyderabad Main Road",
    "city": "Hyderabad",
    "state": "India",
    "pincode": 331366,
    "phone": "+91-6217820259",
    "lat": 17.37640481011716,
    "lng": 78.49329239067113
  },
  {
    "name": "Dr. Rajesh Sengupta",
    "specialty": "Gynecology",
    "clinic": "Sengupta Health Clinic",
    "address": "121 Chennai Main Road",
    "city": "Chennai",
    "state": "India",
    "pincode": 774430,
    "phone": "+91-6689884269",
    "lat": 13.084980401297319,
    "lng": 80.27481083853667
  },
  {
    "name": "Dr. Rohan Patel",
    "specialty": "Gynecology",
    "clinic": "Patel Health Clinic",
    "address": "22 Pune Main Road",
    "city": "Pune",
    "state": "India",
    "pincode": 355916,
    "phone": "+91-6730572415",
    "lat": 18.511802812401935,
    "lng": 73.87391315064096
  },
  {
    "name": "Dr. Anil Chakraborty",
    "specialty": "Gynecology",
    "clinic": "Chakraborty Health Clinic",
    "address": "200 Delhi Main Road",
    "city": "Delhi",
    "state": "India",
    "pincode": 419742,
    "phone": "+91-8957397469",
    "lat": 28.71000039077964,
    "lng": 77.09599916256444
  },
  {
    "name": "Dr. Vikram Krishnan",
    "specialty": "Gynecology",
    "clinic": "Krishnan Health Clinic",
    "address": "198 Pune Main Road",
    "city": "Pune",
    "state": "India",
    "pincode": 145448,
    "phone": "+91-7127134602",
    "lat": 18.527099450913386,
    "lng": 73.8608318402818
  },
  {
    "name": "Dr. Rohan Kulkarni",
    "specialty": "Gynecology",
    "clinic": "Kulkarni Health Clinic",
    "address": "17 Kolkata Main Road",
    "city": "Kolkata",
    "state": "India",
    "pincode": 666996,
    "phone": "+91-6062468536",
    "lat": 22.56273431550065,
    "lng": 88.36960721125624
  },
  {
    "name": "Dr. Hina Patel",
    "specialty": "Gynecology",
    "clinic": "Patel Health Clinic",
    "address": "10 Chennai Main Road",
    "city": "Chennai",
    "state": "India",
    "pincode": 511742,
    "phone": "+91-8998403049",
    "lat": 13.080645081211188,
    "lng": 80.25118335143847
  },
  {
    "name": "Dr. Ritu Patel",
    "specialty": "Gynecology",
    "clinic": "Patel Health Clinic",
    "address": "69 Kolkata Main Road",
    "city": "Kolkata",
    "state": "India",
    "pincode": 193724,
    "phone": "+91-8966112413",
    "lat": 22.579468898138302,
    "lng": 88.35678842074336
  },
  {
    "name": "Dr. Rita Reddy",
    "specialty": "Gynecology",
    "clinic": "Reddy Health Clinic",
    "address": "188 Mumbai Main Road",
    "city": "Mumbai",
    "state": "India",
    "pincode": 997626,
    "phone": "+91-9215324348",
    "lat": 19.06568364413799,
    "lng": 72.86388594525174
  },
  {
    "name": "Dr. Kavita Mehta",
    "specialty": "Gynecology",
    "clinic": "Mehta Health Clinic",
    "address": "21 Bengaluru Main Road",
    "city": "Bengaluru",
    "state": "India",
    "pincode": 654646,
    "phone": "+91-9193893165",
    "lat": 12.957617725049483,
    "lng": 77.58534685162324
  },
  {
    "name": "Dr. Ritu Singh",
    "specialty": "Gynecology",
    "clinic": "Singh Health Clinic",
    "address": "10 Ahmedabad Main Road",
    "city": "Ahmedabad",
    "state": "India",
    "pincode": 757838,
    "phone": "+91-9545954725",
    "lat": 23.021598601661243,
    "lng": 72.58509534488162
  },
  {
    "name": "Dr. Meera Reddy",
    "specialty": "Gynecology",
    "clinic": "Reddy Health Clinic",
    "address": "118 Bengaluru Main Road",
    "city": "Bengaluru",
    "state": "India",
    "pincode": 749685,
    "phone": "+91-7511496691",
    "lat": 12.958616466448587,
    "lng": 77.60466133808002
  },
  {
    "name": "Dr. Rajesh Mehta",
    "specialty": "Gynecology",
    "clinic": "Mehta Health Clinic",
    "address": "197 Jaipur Main Road",
    "city": "Jaipur",
    "state": "India",
    "pincode": 557910,
    "phone": "+91-7073006124",
    "lat": 26.917255639385104,
    "lng": 75.77275750472386
  },
  {
    "name": "Dr. Latha Ghosh",
    "specialty": "Gynecology",
    "clinic": "Ghosh Health Clinic",
    "address": "186 Chennai Main Road",
    "city": "Chennai",
    "state": "India",
    "pincode": 423797,
    "phone": "+91-7180330191",
    "lat": 13.065525278994109,
    "lng": 80.25096448690992
  },
  {
    "name": "Dr. Rohan Sharma",
    "specialty": "Gynecology",
    "clinic": "Sharma Health Clinic",
    "address": "162 Hyderabad Main Road",
    "city": "Hyderabad",
    "state": "India",
    "pincode": 329555,
    "phone": "+91-7778669108",
    "lat": 17.402133280152338,
    "lng": 78.46745507412642
  },
  {
    "name": "Dr. Rohan Rao",
    "specialty": "Gynecology",
    "clinic": "Rao Health Clinic",
    "address": "130 Jaipur Main Road",
    "city": "Jaipur",
    "state": "India",
    "pincode": 260342,
    "phone": "+91-8091782342",
    "lat": 26.903365821837387,
    "lng": 75.78007282699373
  },
  {
    "name": "Dr. Vikram Shah",
    "specialty": "Gynecology",
    "clinic": "Shah Health Clinic",
    "address": "161 Kolkata Main Road",
    "city": "Kolkata",
    "state": "India",
    "pincode": 327901,
    "phone": "+91-6543270597",
    "lat": 22.576106607189022,
    "lng": 88.36499073424082
  },
  {
    "name": "Dr. Meera Mehta",
    "specialty": "Gynecology",
    "clinic": "Mehta Health Clinic",
    "address": "141 Pune Main Road",
    "city": "Pune",
    "state": "India",
    "pincode": 230665,
    "phone": "+91-7606137288",
    "lat": 18.52485718221358,
    "lng": 73.86535773850538
  },
  {
    "name": "Dr. Farheen Reddy",
    "specialty": "Gynecology",
    "clinic": "Reddy Health Clinic",
    "address": "196 Kolkata Main Road",
    "city": "Kolkata",
    "state": "India",
    "pincode": 772182,
    "phone": "+91-7342772824",
    "lat": 22.579846888849385,
    "lng": 88.36338335827978
  },
  {
    "name": "Dr. Latha Sengupta",
    "specialty": "Gynecology",
    "clinic": "Sengupta Health Clinic",
    "address": "33 Mumbai Main Road",
    "city": "Mumbai",
    "state": "India",
    "pincode": 365108,
    "phone": "+91-8099699933",
    "lat": 19.08851902150115,
    "lng": 72.86477370965802
  },
  {
    "name": "Dr. Priya Mehta",
    "specialty": "Gynecology",
    "clinic": "Mehta Health Clinic",
    "address": "153 Ahmedabad Main Road",
    "city": "Ahmedabad",
    "state": "India",
    "pincode": 780762,
    "phone": "+91-6957650485",
    "lat": 23.037909577255967,
    "lng": 72.56327363919483
  },
  {
    "name": "Dr. Ritu Mehta",
    "specialty": "Gynecology",
    "clinic": "Mehta Health Clinic",
    "address": "185 Hyderabad Main Road",
    "city": "Hyderabad",
    "state": "India",
    "pincode": 514193,
    "phone": "+91-7922812893",
    "lat": 17.386123471042293,
    "lng": 78.48389068920163
  },
  {
    "name": "Dr. Latha Krishnan",
    "specialty": "Gynecology",
    "clinic": "Krishnan Health Clinic",
    "address": "44 Bengaluru Main Road",
    "city": "Bengaluru",
    "state": "India",
    "pincode": 512974,
    "phone": "+91-6571279294",
    "lat": 12.952292485611638,
    "lng": 77.59643304714946
  },
  {
    "name": "Dr. Hina Singh",
    "specialty": "Gynecology",
    "clinic": "Singh Health Clinic",
    "address": "29 Kolkata Main Road",
    "city": "Kolkata",
    "state": "India",
    "pincode": 339268,
    "phone": "+91-7433986037",
    "lat": 22.58158662901541,
    "lng": 88.36449530991858
  },
  {
    "name": "Dr. Anil Krishnan",
    "specialty": "Gynecology",
    "clinic": "Krishnan Health Clinic",
    "address": "126 Jaipur Main Road",
    "city": "Jaipur",
    "state": "India",
    "pincode": 935677,
    "phone": "+91-7775779866",
    "lat": 26.91694684150314,
    "lng": 75.79356424442243
  },
  {
    "name": "Dr. Sunita Chakraborty",
    "specialty": "Gynecology",
    "clinic": "Chakraborty Health Clinic",
    "address": "165 Chennai Main Road",
    "city": "Chennai",
    "state": "India",
    "pincode": 349713,
    "phone": "+91-6372329765",
    "lat": 13.093998690152569,
    "lng": 80.28612665960077
  },
  {
    "name": "Dr. Rupal Mehta",
    "specialty": "Gynecology",
    "clinic": "Mehta Health Clinic",
    "address": "158 Bengaluru Main Road",
    "city": "Bengaluru",
    "state": "India",
    "pincode": 756253,
    "phone": "+91-6634745919",
    "lat": 12.98363430044844,
    "lng": 77.5955429411444
  },
  {
    "name": "Dr. Sayan Chakraborty",
    "specialty": "Gynecology",
    "clinic": "Chakraborty Health Clinic",
    "address": "63 Delhi Main Road",
    "city": "Delhi",
    "state": "India",
    "pincode": 578762,
    "phone": "+91-8976545171",
    "lat": 28.719220641403844,
    "lng": 77.0923756772349
  },
  {
    "name": "Dr. Sayan Sengupta",
    "specialty": "Gynecology",
    "clinic": "Sengupta Health Clinic",
    "address": "113 Kolkata Main Road",
    "city": "Kolkata",
    "state": "India",
    "pincode": 600174,
    "phone": "+91-8129363322",
    "lat": 22.564009778821212,
    "lng": 88.3769841439394
  },
  {
    "name": "Dr. Priya Verma",
    "specialty": "Gynecology",
    "clinic": "Verma Health Clinic",
    "address": "97 Delhi Main Road",
    "city": "Delhi",
    "state": "India",
    "pincode": 300211,
    "phone": "+91-8968963660",
    "lat": 28.712286019697423,
    "lng": 77.11977921475217
  },
  {
    "name": "Dr. Rajesh Sharma",
    "specialty": "Gynecology",
    "clinic": "Sharma Health Clinic",
    "address": "63 Delhi Main Road",
    "city": "Delhi",
    "state": "India",
    "pincode": 348697,
    "phone": "+91-9510556047",
    "lat": 28.707764373576723,
    "lng": 77.0942822919253
  },
  {
    "name": "Dr. Sneha Rao",
    "specialty": "Gynecology",
    "clinic": "Rao Health Clinic",
    "address": "82 Chennai Main Road",
    "city": "Chennai",
    "state": "India",
    "pincode": 163981,
    "phone": "+91-8332753661",
    "lat": 13.065095401001214,
    "lng": 80.28543315166314
  },
  {
    "name": "Dr. Nidhi Patel",
    "specialty": "Gynecology",
    "clinic": "Patel Health Clinic",
    "address": "15 Ahmedabad Main Road",
    "city": "Ahmedabad",
    "state": "India",
    "pincode": 757130,
    "phone": "+91-6151916047",
    "lat": 23.016127617248546,
    "lng": 72.56211546704664
  },
  {
    "name": "Dr. Anil Das",
    "specialty": "Gynecology",
    "clinic": "Das Health Clinic",
    "address": "132 Ahmedabad Main Road",
    "city": "Ahmedabad",
    "state": "India",
    "pincode": 175341,
    "phone": "+91-7395598468",
    "lat": 23.042181152413217,
    "lng": 72.55774658817053
  },
  {
    "name": "Dr. Meera Mehta",
    "specialty": "Gynecology",
    "clinic": "Mehta Health Clinic",
    "address": "86 Lucknow Main Road",
    "city": "Lucknow",
    "state": "India",
    "pincode": 437220,
    "phone": "+91-6395489232",
    "lat": 26.82881865711891,
    "lng": 80.9342560077679
  },
  {
    "name": "Dr. Manish Ghosh",
    "specialty": "Gynecology",
    "clinic": "Ghosh Health Clinic",
    "address": "20 Pune Main Road",
    "city": "Pune",
    "state": "India",
    "pincode": 426717,
    "phone": "+91-9795355810",
    "lat": 18.518225823363917,
    "lng": 73.8485234755047
  },
  {
    "name": "Dr. Vikram Das",
    "specialty": "Gynecology",
    "clinic": "Das Health Clinic",
    "address": "46 Bengaluru Main Road",
    "city": "Bengaluru",
    "state": "India",
    "pincode": 746951,
    "phone": "+91-6501101393",
    "lat": 12.982843218232155,
    "lng": 77.59974946905538
  },
  {
    "name": "Dr. Latha Patel",
    "specialty": "Gynecology",
    "clinic": "Patel Health Clinic",
    "address": "91 Kolkata Main Road",
    "city": "Kolkata",
    "state": "India",
    "pincode": 656766,
    "phone": "+91-8670330058",
    "lat": 22.57903998245468,
    "lng": 88.36047967907923
  },
  {
    "name": "Dr. Rupal Mehta",
    "specialty": "Gynecology",
    "clinic": "Mehta Health Clinic",
    "address": "76 Chennai Main Road",
    "city": "Chennai",
    "state": "India",
    "pincode": 876006,
    "phone": "+91-6719217825",
    "lat": 13.075091009255745,
    "lng": 80.27333696368841
  },
  {
    "name": "Dr. Manish Patel",
    "specialty": "Gynecology",
    "clinic": "Patel Health Clinic",
    "address": "181 Lucknow Main Road",
    "city": "Lucknow",
    "state": "India",
    "pincode": 173642,
    "phone": "+91-7382519095",
    "lat": 26.846399039735324,
    "lng": 80.95164247438319
  },
  {
    "name": "Dr. Meera Khan",
    "specialty": "Gynecology",
    "clinic": "Khan Health Clinic",
    "address": "105 Bengaluru Main Road",
    "city": "Bengaluru",
    "state": "India",
    "pincode": 664916,
    "phone": "+91-9924342477",
    "lat": 12.957719382487426,
    "lng": 77.57863536151014
  },
  {
    "name": "Dr. Sunita Singh",
    "specialty": "Gynecology",
    "clinic": "Singh Health Clinic",
    "address": "13 Jaipur Main Road",
    "city": "Jaipur",
    "state": "India",
    "pincode": 383387,
    "phone": "+91-6594927491",
    "lat": 26.92003319875784,
    "lng": 75.8067929227967
  },
  {
    "name": "Dr. Rohan Banerjee",
    "specialty": "Gynecology",
    "clinic": "Banerjee Health Clinic",
    "address": "55 Hyderabad Main Road",
    "city": "Hyderabad",
    "state": "India",
    "pincode": 196526,
    "phone": "+91-8733915866",
    "lat": 17.40261861176135,
    "lng": 78.49991660387933
  },
  {
    "name": "Dr. Rohan Banerjee",
    "specialty": "Gynecology",
    "clinic": "Banerjee Health Clinic",
    "address": "16 Chennai Main Road",
    "city": "Chennai",
    "state": "India",
    "pincode": 797418,
    "phone": "+91-7468172691",
    "lat": 13.099110708929775,
    "lng": 80.28372962483047
  },
  {
    "name": "Dr. Sayan Verma",
    "specialty": "Gynecology",
    "clinic": "Verma Health Clinic",
    "address": "57 Chennai Main Road",
    "city": "Chennai",
    "state": "India",
    "pincode": 880980,
    "phone": "+91-9072530188",
    "lat": 13.072328705789355,
    "lng": 80.28189414932191
  },
  {
    "name": "Dr. Hina Ghosh",
    "specialty": "Gynecology",
    "clinic": "Ghosh Health Clinic",
    "address": "30 Hyderabad Main Road",
    "city": "Hyderabad",
    "state": "India",
    "pincode": 271061,
    "phone": "+91-8687339419",
    "lat": 17.39796730745592,
    "lng": 78.49989149551246
  },
  {
    "name": "Dr. Rajesh Verma",
    "specialty": "Gynecology",
    "clinic": "Verma Health Clinic",
    "address": "91 Ahmedabad Main Road",
    "city": "Ahmedabad",
    "state": "India",
    "pincode": 256893,
    "phone": "+91-9970443817",
    "lat": 23.01166322828371,
    "lng": 72.56259709561665
  },
  {
    "name": "Dr. Rita Chakraborty",
    "specialty": "Gynecology",
    "clinic": "Chakraborty Health Clinic",
    "address": "162 Hyderabad Main Road",
    "city": "Hyderabad",
    "state": "India",
    "pincode": 598428,
    "phone": "+91-6215579056",
    "lat": 17.36955172841255,
    "lng": 78.49225634481954
  },
  {
    "name": "Dr. Anil Singh",
    "specialty": "Gynecology",
    "clinic": "Singh Health Clinic",
    "address": "68 Lucknow Main Road",
    "city": "Lucknow",
    "state": "India",
    "pincode": 231387,
    "phone": "+91-9022277584",
    "lat": 26.837460166510127,
    "lng": 80.95609318571009
  },
  {
    "name": "Dr. Rupal Ghosh",
    "specialty": "Gynecology",
    "clinic": "Ghosh Health Clinic",
    "address": "11 Jaipur Main Road",
    "city": "Jaipur",
    "state": "India",
    "pincode": 419155,
    "phone": "+91-6363579526",
    "lat": 26.911627865893017,
    "lng": 75.77131424502785
  },
  {
    "name": "Dr. Rajesh Verma",
    "specialty": "Gynecology",
    "clinic": "Verma Health Clinic",
    "address": "77 Bengaluru Main Road",
    "city": "Bengaluru",
    "state": "India",
    "pincode": 381363,
    "phone": "+91-6463553196",
    "lat": 12.99042213148833,
    "lng": 77.59409584959455
  },
  {
    "name": "Dr. Meera Reddy",
    "specialty": "Gynecology",
    "clinic": "Reddy Health Clinic",
    "address": "155 Ahmedabad Main Road",
    "city": "Ahmedabad",
    "state": "India",
    "pincode": 679727,
    "phone": "+91-6348198090",
    "lat": 23.019468574552057,
    "lng": 72.58275794128143
  },
  {
    "name": "Dr. Sunita Verma",
    "specialty": "Neurology",
    "clinic": "Verma Health Clinic",
    "address": "24 Jaipur Main Road",
    "city": "Jaipur",
    "state": "India",
    "pincode": 449187,
    "phone": "+91-8450493097",
    "lat": 26.907685254404775,
    "lng": 75.80482788291286
  },
  {
    "name": "Dr. Arjun Mehta",
    "specialty": "Neurology",
    "clinic": "Mehta Health Clinic",
    "address": "150 Lucknow Main Road",
    "city": "Lucknow",
    "state": "India",
    "pincode": 232543,
    "phone": "+91-9571882537",
    "lat": 26.840217163056224,
    "lng": 80.94010550966647
  },
  {
    "name": "Dr. Anirban Krishnan",
    "specialty": "Neurology",
    "clinic": "Krishnan Health Clinic",
    "address": "42 Bengaluru Main Road",
    "city": "Bengaluru",
    "state": "India",
    "pincode": 236391,
    "phone": "+91-9146155698",
    "lat": 12.99107706943523,
    "lng": 77.59824323358198
  },
  {
    "name": "Dr. Kavita Sharma",
    "specialty": "Neurology",
    "clinic": "Sharma Health Clinic",
    "address": "148 Jaipur Main Road",
    "city": "Jaipur",
    "state": "India",
    "pincode": 713183,
    "phone": "+91-9002395246",
    "lat": 26.918957995982357,
    "lng": 75.80232856936398
  },
  {
    "name": "Dr. Rohan Shah",
    "specialty": "Neurology",
    "clinic": "Shah Health Clinic",
    "address": "22 Jaipur Main Road",
    "city": "Jaipur",
    "state": "India",
    "pincode": 450983,
    "phone": "+91-7647964318",
    "lat": 26.929758794585027,
    "lng": 75.77943439669488
  },
  {
    "name": "Dr. Meera Reddy",
    "specialty": "Neurology",
    "clinic": "Reddy Health Clinic",
    "address": "103 Bengaluru Main Road",
    "city": "Bengaluru",
    "state": "India",
    "pincode": 794943,
    "phone": "+91-7566743688",
    "lat": 12.95749769300139,
    "lng": 77.60458579333421
  },
  {
    "name": "Dr. Farheen Verma",
    "specialty": "Neurology",
    "clinic": "Verma Health Clinic",
    "address": "93 Jaipur Main Road",
    "city": "Jaipur",
    "state": "India",
    "pincode": 247538,
    "phone": "+91-6781107843",
    "lat": 26.924464093811178,
    "lng": 75.7844791419578
  },
  {
    "name": "Dr. Hina Mehta",
    "specialty": "Neurology",
    "clinic": "Mehta Health Clinic",
    "address": "23 Lucknow Main Road",
    "city": "Lucknow",
    "state": "India",
    "pincode": 365419,
    "phone": "+91-9758310224",
    "lat": 26.831247860540934,
    "lng": 80.92797830283506
  },
  {
    "name": "Dr. Rohan Banerjee",
    "specialty": "Neurology",
    "clinic": "Banerjee Health Clinic",
    "address": "151 Delhi Main Road",
    "city": "Delhi",
    "state": "India",
    "pincode": 200708,
    "phone": "+91-9823952939",
    "lat": 28.717649142897617,
    "lng": 77.12154525135264
  },
  {
    "name": "Dr. Sunita Patel",
    "specialty": "Neurology",
    "clinic": "Patel Health Clinic",
    "address": "88 Lucknow Main Road",
    "city": "Lucknow",
    "state": "India",
    "pincode": 804451,
    "phone": "+91-9600239516",
    "lat": 26.845206358715025,
    "lng": 80.95301931581663
  },
  {
    "name": "Dr. Anil Mehta",
    "specialty": "Neurology",
    "clinic": "Mehta Health Clinic",
    "address": "48 Mumbai Main Road",
    "city": "Mumbai",
    "state": "India",
    "pincode": 133146,
    "phone": "+91-9288307983",
    "lat": 19.084176023103627,
    "lng": 72.88898321716454
  },
  {
    "name": "Dr. Sunita Ghosh",
    "specialty": "Neurology",
    "clinic": "Ghosh Health Clinic",
    "address": "48 Ahmedabad Main Road",
    "city": "Ahmedabad",
    "state": "India",
    "pincode": 663162,
    "phone": "+91-6989304757",
    "lat": 23.00294499495249,
    "lng": 72.56490034707565
  },
  {
    "name": "Dr. Nirmala Das",
    "specialty": "Neurology",
    "clinic": "Das Health Clinic",
    "address": "37 Hyderabad Main Road",
    "city": "Hyderabad",
    "state": "India",
    "pincode": 640704,
    "phone": "+91-7749683794",
    "lat": 17.39254358280264,
    "lng": 78.49335537084697
  },
  {
    "name": "Dr. Ritu Reddy",
    "specialty": "Neurology",
    "clinic": "Reddy Health Clinic",
    "address": "40 Delhi Main Road",
    "city": "Delhi",
    "state": "India",
    "pincode": 625794,
    "phone": "+91-6351230066",
    "lat": 28.701146012431252,
    "lng": 77.08866078282621
  },
  {
    "name": "Dr. Rajesh Sharma",
    "specialty": "Neurology",
    "clinic": "Sharma Health Clinic",
    "address": "183 Chennai Main Road",
    "city": "Chennai",
    "state": "India",
    "pincode": 915861,
    "phone": "+91-9173232257",
    "lat": 13.090601275132116,
    "lng": 80.27902771549564
  },
  {
    "name": "Dr. Manish Banerjee",
    "specialty": "Neurology",
    "clinic": "Banerjee Health Clinic",
    "address": "135 Delhi Main Road",
    "city": "Delhi",
    "state": "India",
    "pincode": 890238,
    "phone": "+91-8793116854",
    "lat": 28.699533131469405,
    "lng": 77.11410371839311
  },
  {
    "name": "Dr. Kavita Sengupta",
    "specialty": "Neurology",
    "clinic": "Sengupta Health Clinic",
    "address": "58 Delhi Main Road",
    "city": "Delhi",
    "state": "India",
    "pincode": 434571,
    "phone": "+91-9534554265",
    "lat": 28.702572276948967,
    "lng": 77.09988396466751
  },
  {
    "name": "Dr. Farheen Ghosh",
    "specialty": "Neurology",
    "clinic": "Ghosh Health Clinic",
    "address": "114 Jaipur Main Road",
    "city": "Jaipur",
    "state": "India",
    "pincode": 712147,
    "phone": "+91-6156510630",
    "lat": 26.91642633219602,
    "lng": 75.78264396325136
  },
  {
    "name": "Dr. Anirban Mehta",
    "specialty": "Neurology",
    "clinic": "Mehta Health Clinic",
    "address": "58 Bengaluru Main Road",
    "city": "Bengaluru",
    "state": "India",
    "pincode": 401802,
    "phone": "+91-8787049530",
    "lat": 12.971321488158102,
    "lng": 77.59060198438155
  },
  {
    "name": "Dr. Kavita Sharma",
    "specialty": "Neurology",
    "clinic": "Sharma Health Clinic",
    "address": "146 Mumbai Main Road",
    "city": "Mumbai",
    "state": "India",
    "pincode": 506180,
    "phone": "+91-8521446634",
    "lat": 19.05928477510497,
    "lng": 72.890661065181
  },
  {
    "name": "Dr. Vikram Rao",
    "specialty": "Neurology",
    "clinic": "Rao Health Clinic",
    "address": "27 Pune Main Road",
    "city": "Pune",
    "state": "India",
    "pincode": 440271,
    "phone": "+91-7262792398",
    "lat": 18.52962904533956,
    "lng": 73.86863923041486
  },
  {
    "name": "Dr. Rupal Shah",
    "specialty": "Neurology",
    "clinic": "Shah Health Clinic",
    "address": "156 Delhi Main Road",
    "city": "Delhi",
    "state": "India",
    "pincode": 555887,
    "phone": "+91-8838433651",
    "lat": 28.723785921924726,
    "lng": 77.1083447326051
  },
  {
    "name": "Dr. Sunita Sengupta",
    "specialty": "Neurology",
    "clinic": "Sengupta Health Clinic",
    "address": "154 Bengaluru Main Road",
    "city": "Bengaluru",
    "state": "India",
    "pincode": 350864,
    "phone": "+91-9711438761",
    "lat": 12.988226549179224,
    "lng": 77.60787988322998
  },
  {
    "name": "Dr. Ritu Krishnan",
    "specialty": "Neurology",
    "clinic": "Krishnan Health Clinic",
    "address": "148 Jaipur Main Road",
    "city": "Jaipur",
    "state": "India",
    "pincode": 877151,
    "phone": "+91-7132091722",
    "lat": 26.901460228249356,
    "lng": 75.77871142002505
  },
  {
    "name": "Dr. Priya Chakraborty",
    "specialty": "Neurology",
    "clinic": "Chakraborty Health Clinic",
    "address": "67 Lucknow Main Road",
    "city": "Lucknow",
    "state": "India",
    "pincode": 527902,
    "phone": "+91-7075640182",
    "lat": 26.83036781211674,
    "lng": 80.92802969005226
  },
  {
    "name": "Dr. Anil Mehta",
    "specialty": "Neurology",
    "clinic": "Mehta Health Clinic",
    "address": "134 Jaipur Main Road",
    "city": "Jaipur",
    "state": "India",
    "pincode": 510373,
    "phone": "+91-8184370354",
    "lat": 26.91022053630989,
    "lng": 75.7932583017192
  },
  {
    "name": "Dr. Rohan Das",
    "specialty": "Neurology",
    "clinic": "Das Health Clinic",
    "address": "126 Kolkata Main Road",
    "city": "Kolkata",
    "state": "India",
    "pincode": 354557,
    "phone": "+91-6273314950",
    "lat": 22.567811180972893,
    "lng": 88.37277316754844
  },
  {
    "name": "Dr. Rohan Singh",
    "specialty": "Neurology",
    "clinic": "Singh Health Clinic",
    "address": "157 Delhi Main Road",
    "city": "Delhi",
    "state": "India",
    "pincode": 978268,
    "phone": "+91-7907145824",
    "lat": 28.68630612958204,
    "lng": 77.1106195971395
  },
  {
    "name": "Dr. Latha Ghosh",
    "specialty": "Neurology",
    "clinic": "Ghosh Health Clinic",
    "address": "148 Lucknow Main Road",
    "city": "Lucknow",
    "state": "India",
    "pincode": 648971,
    "phone": "+91-7170556254",
    "lat": 26.856525908559995,
    "lng": 80.95340136108292
  },
  {
    "name": "Dr. Nirmala Rao",
    "specialty": "Neurology",
    "clinic": "Rao Health Clinic",
    "address": "163 Lucknow Main Road",
    "city": "Lucknow",
    "state": "India",
    "pincode": 527771,
    "phone": "+91-7181026201",
    "lat": 26.83815346115646,
    "lng": 80.9342218562404
  },
  {
    "name": "Dr. Sunita Mehta",
    "specialty": "Neurology",
    "clinic": "Mehta Health Clinic",
    "address": "117 Ahmedabad Main Road",
    "city": "Ahmedabad",
    "state": "India",
    "pincode": 960495,
    "phone": "+91-6637505237",
    "lat": 23.01923326833538,
    "lng": 72.5855669880214
  },
  {
    "name": "Dr. Aditi Sharma",
    "specialty": "Neurology",
    "clinic": "Sharma Health Clinic",
    "address": "43 Lucknow Main Road",
    "city": "Lucknow",
    "state": "India",
    "pincode": 569381,
    "phone": "+91-9400952587",
    "lat": 26.851734029961634,
    "lng": 80.95365329696901
  },
  {
    "name": "Dr. Rupal Kulkarni",
    "specialty": "Neurology",
    "clinic": "Kulkarni Health Clinic",
    "address": "105 Ahmedabad Main Road",
    "city": "Ahmedabad",
    "state": "India",
    "pincode": 136832,
    "phone": "+91-8498265514",
    "lat": 23.03491298342602,
    "lng": 72.5872375149603
  },
  {
    "name": "Dr. Vikram Krishnan",
    "specialty": "Neurology",
    "clinic": "Krishnan Health Clinic",
    "address": "153 Ahmedabad Main Road",
    "city": "Ahmedabad",
    "state": "India",
    "pincode": 417254,
    "phone": "+91-8653180577",
    "lat": 23.018277578380946,
    "lng": 72.58250416805062
  },
  {
    "name": "Dr. Rita Krishnan",
    "specialty": "Neurology",
    "clinic": "Krishnan Health Clinic",
    "address": "95 Bengaluru Main Road",
    "city": "Bengaluru",
    "state": "India",
    "pincode": 844462,
    "phone": "+91-9939709709",
    "lat": 12.955983545160146,
    "lng": 77.58542685485371
  },
  {
    "name": "Dr. Aditi Khan",
    "specialty": "Neurology",
    "clinic": "Khan Health Clinic",
    "address": "83 Delhi Main Road",
    "city": "Delhi",
    "state": "India",
    "pincode": 915227,
    "phone": "+91-9586011323",
    "lat": 28.69819092504742,
    "lng": 77.09017479456952
  },
  {
    "name": "Dr. Ritu Rao",
    "specialty": "Neurology",
    "clinic": "Rao Health Clinic",
    "address": "121 Chennai Main Road",
    "city": "Chennai",
    "state": "India",
    "pincode": 659231,
    "phone": "+91-9831583348",
    "lat": 13.069436636416519,
    "lng": 80.27202970329648
  },
  {
    "name": "Dr. Rajesh Sengupta",
    "specialty": "Neurology",
    "clinic": "Sengupta Health Clinic",
    "address": "54 Kolkata Main Road",
    "city": "Kolkata",
    "state": "India",
    "pincode": 397761,
    "phone": "+91-8850876713",
    "lat": 22.56443737550354,
    "lng": 88.35913760535881
  },
  {
    "name": "Dr. Rajesh Singh",
    "specialty": "Neurology",
    "clinic": "Singh Health Clinic",
    "address": "121 Mumbai Main Road",
    "city": "Mumbai",
    "state": "India",
    "pincode": 748434,
    "phone": "+91-8052556858",
    "lat": 19.070290520000622,
    "lng": 72.89299591550294
  },
  {
    "name": "Dr. Hina Rao",
    "specialty": "Neurology",
    "clinic": "Rao Health Clinic",
    "address": "104 Ahmedabad Main Road",
    "city": "Ahmedabad",
    "state": "India",
    "pincode": 315848,
    "phone": "+91-7467891739",
    "lat": 23.029473135872504,
    "lng": 72.55430031993764
  },
  {
    "name": "Dr. Hina Mehta",
    "specialty": "Neurology",
    "clinic": "Mehta Health Clinic",
    "address": "95 Lucknow Main Road",
    "city": "Lucknow",
    "state": "India",
    "pincode": 560638,
    "phone": "+91-8622555126",
    "lat": 26.839812722487654,
    "lng": 80.95847575422498
  },
  {
    "name": "Dr. Manish Ghosh",
    "specialty": "Neurology",
    "clinic": "Ghosh Health Clinic",
    "address": "177 Kolkata Main Road",
    "city": "Kolkata",
    "state": "India",
    "pincode": 372159,
    "phone": "+91-7237221846",
    "lat": 22.57654713319126,
    "lng": 88.35815811193343
  },
  {
    "name": "Dr. Sayan Krishnan",
    "specialty": "Neurology",
    "clinic": "Krishnan Health Clinic",
    "address": "162 Kolkata Main Road",
    "city": "Kolkata",
    "state": "India",
    "pincode": 322486,
    "phone": "+91-7951776981",
    "lat": 22.586827255873075,
    "lng": 88.37742560987618
  },
  {
    "name": "Dr. Vikram Sengupta",
    "specialty": "Neurology",
    "clinic": "Sengupta Health Clinic",
    "address": "187 Pune Main Road",
    "city": "Pune",
    "state": "India",
    "pincode": 422789,
    "phone": "+91-6007036207",
    "lat": 18.516456064496793,
    "lng": 73.84322059090275
  },
  {
    "name": "Dr. Sunita Krishnan",
    "specialty": "Neurology",
    "clinic": "Krishnan Health Clinic",
    "address": "195 Delhi Main Road",
    "city": "Delhi",
    "state": "India",
    "pincode": 904747,
    "phone": "+91-6782299012",
    "lat": 28.722278205638535,
    "lng": 77.10175842880909
  },
  {
    "name": "Dr. Nirmala Chakraborty",
    "specialty": "Neurology",
    "clinic": "Chakraborty Health Clinic",
    "address": "90 Lucknow Main Road",
    "city": "Lucknow",
    "state": "India",
    "pincode": 594158,
    "phone": "+91-7572957523",
    "lat": 26.851073903986112,
    "lng": 80.94217554214534
  },
  {
    "name": "Dr. Sneha Chakraborty",
    "specialty": "Neurology",
    "clinic": "Chakraborty Health Clinic",
    "address": "136 Chennai Main Road",
    "city": "Chennai",
    "state": "India",
    "pincode": 847651,
    "phone": "+91-9341438604",
    "lat": 13.09561128339188,
    "lng": 80.258194170618
  },
  {
    "name": "Dr. Rupal Rao",
    "specialty": "Neurology",
    "clinic": "Rao Health Clinic",
    "address": "38 Kolkata Main Road",
    "city": "Kolkata",
    "state": "India",
    "pincode": 524248,
    "phone": "+91-6877484810",
    "lat": 22.57050564161967,
    "lng": 88.37500098307343
  },
  {
    "name": "Dr. Anirban Ghosh",
    "specialty": "Neurology",
    "clinic": "Ghosh Health Clinic",
    "address": "171 Delhi Main Road",
    "city": "Delhi",
    "state": "India",
    "pincode": 147514,
    "phone": "+91-6171986177",
    "lat": 28.724085768867234,
    "lng": 77.08634775924081
  },
  {
    "name": "Dr. Nidhi Das",
    "specialty": "Neurology",
    "clinic": "Das Health Clinic",
    "address": "72 Bengaluru Main Road",
    "city": "Bengaluru",
    "state": "India",
    "pincode": 871538,
    "phone": "+91-6326993949",
    "lat": 12.977422867519206,
    "lng": 77.59179555113472
  },
  {
    "name": "Dr. Kavita Ghosh",
    "specialty": "Neurology",
    "clinic": "Ghosh Health Clinic",
    "address": "118 Lucknow Main Road",
    "city": "Lucknow",
    "state": "India",
    "pincode": 771995,
    "phone": "+91-8055777171",
    "lat": 26.846667448703524,
    "lng": 80.93865153395949
  },
  {
    "name": "Dr. Aditi Verma",
    "specialty": "Neurology",
    "clinic": "Verma Health Clinic",
    "address": "166 Mumbai Main Road",
    "city": "Mumbai",
    "state": "India",
    "pincode": 726103,
    "phone": "+91-7208113505",
    "lat": 19.095613384170395,
    "lng": 72.86450984956454
  },
  {
    "name": "Dr. Aditi Ghosh",
    "specialty": "Neurology",
    "clinic": "Ghosh Health Clinic",
    "address": "127 Chennai Main Road",
    "city": "Chennai",
    "state": "India",
    "pincode": 802033,
    "phone": "+91-8633106564",
    "lat": 13.097382517858708,
    "lng": 80.27282066429055
  },
  {
    "name": "Dr. Sunita Shah",
    "specialty": "Neurology",
    "clinic": "Shah Health Clinic",
    "address": "62 Ahmedabad Main Road",
    "city": "Ahmedabad",
    "state": "India",
    "pincode": 108852,
    "phone": "+91-7037788889",
    "lat": 23.011398297729727,
    "lng": 72.57355318146128
  },
  {
    "name": "Dr. Manish Chakraborty",
    "specialty": "Neurology",
    "clinic": "Chakraborty Health Clinic",
    "address": "79 Lucknow Main Road",
    "city": "Lucknow",
    "state": "India",
    "pincode": 404961,
    "phone": "+91-7143785233",
    "lat": 26.82704303376806,
    "lng": 80.94911539370547
  },
  {
    "name": "Dr. Rupal Sengupta",
    "specialty": "Neurology",
    "clinic": "Sengupta Health Clinic",
    "address": "37 Delhi Main Road",
    "city": "Delhi",
    "state": "India",
    "pincode": 890023,
    "phone": "+91-6729645626",
    "lat": 28.72356991796019,
    "lng": 77.08594846996456
  },
  {
    "name": "Dr. Kavita Khan",
    "specialty": "Neurology",
    "clinic": "Khan Health Clinic",
    "address": "100 Lucknow Main Road",
    "city": "Lucknow",
    "state": "India",
    "pincode": 128577,
    "phone": "+91-9654592671",
    "lat": 26.8405868131796,
    "lng": 80.93725123381665
  },
  {
    "name": "Dr. Arjun Rao",
    "specialty": "Neurology",
    "clinic": "Rao Health Clinic",
    "address": "101 Chennai Main Road",
    "city": "Chennai",
    "state": "India",
    "pincode": 280269,
    "phone": "+91-9644453649",
    "lat": 13.079711734736254,
    "lng": 80.28320280792097
  },
  {
    "name": "Dr. Hina Rao",
    "specialty": "Neurology",
    "clinic": "Rao Health Clinic",
    "address": "136 Bengaluru Main Road",
    "city": "Bengaluru",
    "state": "India",
    "pincode": 469626,
    "phone": "+91-7338021221",
    "lat": 12.961054009285618,
    "lng": 77.6109606606253
  },
  {
    "name": "Dr. Ritu Sharma",
    "specialty": "Neurology",
    "clinic": "Sharma Health Clinic",
    "address": "170 Delhi Main Road",
    "city": "Delhi",
    "state": "India",
    "pincode": 279057,
    "phone": "+91-6299878952",
    "lat": 28.704185556456295,
    "lng": 77.0969446973996
  },
  {
    "name": "Dr. Kavita Reddy",
    "specialty": "Neurology",
    "clinic": "Reddy Health Clinic",
    "address": "55 Mumbai Main Road",
    "city": "Mumbai",
    "state": "India",
    "pincode": 815686,
    "phone": "+91-6891980442",
    "lat": 19.071197136782324,
    "lng": 72.88647271917641
  },
  {
    "name": "Dr. Rupal Kulkarni",
    "specialty": "Neurology",
    "clinic": "Kulkarni Health Clinic",
    "address": "121 Jaipur Main Road",
    "city": "Jaipur",
    "state": "India",
    "pincode": 844047,
    "phone": "+91-6896965879",
    "lat": 26.901978469245346,
    "lng": 75.77295049081854
  },
  {
    "name": "Dr. Anil Chakraborty",
    "specialty": "ENT",
    "clinic": "Chakraborty Health Clinic",
    "address": "59 Pune Main Road",
    "city": "Pune",
    "state": "India",
    "pincode": 162101,
    "phone": "+91-9473406985",
    "lat": 18.530855746354096,
    "lng": 73.85194728050462
  },
  {
    "name": "Dr. Manish Patel",
    "specialty": "ENT",
    "clinic": "Patel Health Clinic",
    "address": "127 Ahmedabad Main Road",
    "city": "Ahmedabad",
    "state": "India",
    "pincode": 754415,
    "phone": "+91-9131813030",
    "lat": 23.029642929876488,
    "lng": 72.57694417445944
  },
  {
    "name": "Dr. Arjun Sengupta",
    "specialty": "ENT",
    "clinic": "Sengupta Health Clinic",
    "address": "113 Lucknow Main Road",
    "city": "Lucknow",
    "state": "India",
    "pincode": 284033,
    "phone": "+91-9441080586",
    "lat": 26.864906367911004,
    "lng": 80.9376679200497
  },
  {
    "name": "Dr. Rupal Patel",
    "specialty": "ENT",
    "clinic": "Patel Health Clinic",
    "address": "121 Lucknow Main Road",
    "city": "Lucknow",
    "state": "India",
    "pincode": 501583,
    "phone": "+91-8026770701",
    "lat": 26.835324801477775,
    "lng": 80.95912937518563
  },
  {
    "name": "Dr. Anil Verma",
    "specialty": "ENT",
    "clinic": "Verma Health Clinic",
    "address": "78 Kolkata Main Road",
    "city": "Kolkata",
    "state": "India",
    "pincode": 135892,
    "phone": "+91-7879493088",
    "lat": 22.574424923454927,
    "lng": 88.34437778368726
  },
  {
    "name": "Dr. Sneha Khan",
    "specialty": "ENT",
    "clinic": "Khan Health Clinic",
    "address": "56 Jaipur Main Road",
    "city": "Jaipur",
    "state": "India",
    "pincode": 692549,
    "phone": "+91-8113376393",
    "lat": 26.89384120632084,
    "lng": 75.77815679904732
  },
  {
    "name": "Dr. Nidhi Banerjee",
    "specialty": "ENT",
    "clinic": "Banerjee Health Clinic",
    "address": "179 Kolkata Main Road",
    "city": "Kolkata",
    "state": "India",
    "pincode": 645694,
    "phone": "+91-9379545019",
    "lat": 22.580139681664537,
    "lng": 88.38187660720423
  },
  {
    "name": "Dr. Hina Chakraborty",
    "specialty": "ENT",
    "clinic": "Chakraborty Health Clinic",
    "address": "14 Bengaluru Main Road",
    "city": "Bengaluru",
    "state": "India",
    "pincode": 341022,
    "phone": "+91-6821970772",
    "lat": 12.975767704279772,
    "lng": 77.60475351594057
  },
  {
    "name": "Dr. Ritu Patel",
    "specialty": "ENT",
    "clinic": "Patel Health Clinic",
    "address": "106 Bengaluru Main Road",
    "city": "Bengaluru",
    "state": "India",
    "pincode": 173754,
    "phone": "+91-7664162063",
    "lat": 12.98370711225685,
    "lng": 77.60505100363588
  },
  {
    "name": "Dr. Nidhi Khan",
    "specialty": "ENT",
    "clinic": "Khan Health Clinic",
    "address": "154 Hyderabad Main Road",
    "city": "Hyderabad",
    "state": "India",
    "pincode": 153029,
    "phone": "+91-6580967361",
    "lat": 17.37474067766719,
    "lng": 78.47781366352473
  },
  {
    "name": "Dr. Farheen Shah",
    "specialty": "ENT",
    "clinic": "Shah Health Clinic",
    "address": "181 Chennai Main Road",
    "city": "Chennai",
    "state": "India",
    "pincode": 882953,
    "phone": "+91-8970333018",
    "lat": 13.098692693624672,
    "lng": 80.25630258766759
  },
  {
    "name": "Dr. Sunita Kulkarni",
    "specialty": "ENT",
    "clinic": "Kulkarni Health Clinic",
    "address": "62 Delhi Main Road",
    "city": "Delhi",
    "state": "India",
    "pincode": 346543,
    "phone": "+91-6168570544",
    "lat": 28.691616380096505,
    "lng": 77.10657731241312
  },
  {
    "name": "Dr. Latha Kulkarni",
    "specialty": "ENT",
    "clinic": "Kulkarni Health Clinic",
    "address": "24 Hyderabad Main Road",
    "city": "Hyderabad",
    "state": "India",
    "pincode": 750454,
    "phone": "+91-8872680225",
    "lat": 17.36743331655144,
    "lng": 78.46845670919836
  },
  {
    "name": "Dr. Anirban Khan",
    "specialty": "ENT",
    "clinic": "Khan Health Clinic",
    "address": "173 Jaipur Main Road",
    "city": "Jaipur",
    "state": "India",
    "pincode": 543004,
    "phone": "+91-7663898194",
    "lat": 26.924296648206617,
    "lng": 75.77277128320196
  },
  {
    "name": "Dr. Jay Rao",
    "specialty": "ENT",
    "clinic": "Rao Health Clinic",
    "address": "148 Mumbai Main Road",
    "city": "Mumbai",
    "state": "India",
    "pincode": 728377,
    "phone": "+91-6640716082",
    "lat": 19.067787678484844,
    "lng": 72.88263098309432
  },
  {
    "name": "Dr. Rupal Verma",
    "specialty": "ENT",
    "clinic": "Verma Health Clinic",
    "address": "125 Bengaluru Main Road",
    "city": "Bengaluru",
    "state": "India",
    "pincode": 696880,
    "phone": "+91-7294253874",
    "lat": 12.955535942267352,
    "lng": 77.5986232597543
  },
  {
    "name": "Dr. Aditi Mehta",
    "specialty": "ENT",
    "clinic": "Mehta Health Clinic",
    "address": "158 Mumbai Main Road",
    "city": "Mumbai",
    "state": "India",
    "pincode": 166244,
    "phone": "+91-8269299873",
    "lat": 19.086395918935043,
    "lng": 72.89108705036845
  },
  {
    "name": "Dr. Ritu Verma",
    "specialty": "ENT",
    "clinic": "Verma Health Clinic",
    "address": "196 Pune Main Road",
    "city": "Pune",
    "state": "India",
    "pincode": 551069,
    "phone": "+91-6112914140",
    "lat": 18.52662062027775,
    "lng": 73.86226148128868
  },
  {
    "name": "Dr. Rajesh Banerjee",
    "specialty": "ENT",
    "clinic": "Banerjee Health Clinic",
    "address": "79 Hyderabad Main Road",
    "city": "Hyderabad",
    "state": "India",
    "pincode": 543606,
    "phone": "+91-6786525654",
    "lat": 17.39120516882591,
    "lng": 78.49105602048877
  },
  {
    "name": "Dr. Meera Singh",
    "specialty": "ENT",
    "clinic": "Singh Health Clinic",
    "address": "172 Delhi Main Road",
    "city": "Delhi",
    "state": "India",
    "pincode": 466333,
    "phone": "+91-9160322132",
    "lat": 28.69569356594861,
    "lng": 77.08311949200781
  },
  {
    "name": "Dr. Rupal Kulkarni",
    "specialty": "ENT",
    "clinic": "Kulkarni Health Clinic",
    "address": "83 Jaipur Main Road",
    "city": "Jaipur",
    "state": "India",
    "pincode": 891888,
    "phone": "+91-8079869162",
    "lat": 26.92736807051604,
    "lng": 75.79590444820482
  },
  {
    "name": "Dr. Anil Patel",
    "specialty": "ENT",
    "clinic": "Patel Health Clinic",
    "address": "79 Jaipur Main Road",
    "city": "Jaipur",
    "state": "India",
    "pincode": 258211,
    "phone": "+91-7980438706",
    "lat": 26.90275661380325,
    "lng": 75.78516186166216
  },
  {
    "name": "Dr. Rohan Singh",
    "specialty": "ENT",
    "clinic": "Singh Health Clinic",
    "address": "81 Hyderabad Main Road",
    "city": "Hyderabad",
    "state": "India",
    "pincode": 562003,
    "phone": "+91-6426641390",
    "lat": 17.3766648115669,
    "lng": 78.50592243634237
  },
  {
    "name": "Dr. Kavita Khan",
    "specialty": "ENT",
    "clinic": "Khan Health Clinic",
    "address": "37 Bengaluru Main Road",
    "city": "Bengaluru",
    "state": "India",
    "pincode": 566992,
    "phone": "+91-7659109717",
    "lat": 12.952410223457132,
    "lng": 77.57793930260412
  },
  {
    "name": "Dr. Rajesh Chakraborty",
    "specialty": "ENT",
    "clinic": "Chakraborty Health Clinic",
    "address": "138 Mumbai Main Road",
    "city": "Mumbai",
    "state": "India",
    "pincode": 507309,
    "phone": "+91-6640548664",
    "lat": 19.05711327625773,
    "lng": 72.87924647985659
  },
  {
    "name": "Dr. Nirmala Shah",
    "specialty": "ENT",
    "clinic": "Shah Health Clinic",
    "address": "17 Bengaluru Main Road",
    "city": "Bengaluru",
    "state": "India",
    "pincode": 808843,
    "phone": "+91-9331380402",
    "lat": 12.98087974080064,
    "lng": 77.60871206064225
  },
  {
    "name": "Dr. Latha Banerjee",
    "specialty": "ENT",
    "clinic": "Banerjee Health Clinic",
    "address": "14 Chennai Main Road",
    "city": "Chennai",
    "state": "India",
    "pincode": 434917,
    "phone": "+91-9719264190",
    "lat": 13.075159136697293,
    "lng": 80.2723002325528
  },
  {
    "name": "Dr. Ritu Krishnan",
    "specialty": "ENT",
    "clinic": "Krishnan Health Clinic",
    "address": "138 Kolkata Main Road",
    "city": "Kolkata",
    "state": "India",
    "pincode": 956394,
    "phone": "+91-7005069480",
    "lat": 22.573491792286656,
    "lng": 88.34575626964967
  },
  {
    "name": "Dr. Meera Rao",
    "specialty": "ENT",
    "clinic": "Rao Health Clinic",
    "address": "171 Hyderabad Main Road",
    "city": "Hyderabad",
    "state": "India",
    "pincode": 167143,
    "phone": "+91-9718414957",
    "lat": 17.396333110644775,
    "lng": 78.49579567873936
  },
  {
    "name": "Dr. Meera Shah",
    "specialty": "ENT",
    "clinic": "Shah Health Clinic",
    "address": "38 Jaipur Main Road",
    "city": "Jaipur",
    "state": "India",
    "pincode": 444857,
    "phone": "+91-8216014356",
    "lat": 26.91286575815078,
    "lng": 75.79832158877257
  },
  {
    "name": "Dr. Arjun Reddy",
    "specialty": "ENT",
    "clinic": "Reddy Health Clinic",
    "address": "14 Hyderabad Main Road",
    "city": "Hyderabad",
    "state": "India",
    "pincode": 819643,
    "phone": "+91-8435888060",
    "lat": 17.381928993522326,
    "lng": 78.48042381264972
  },
  {
    "name": "Dr. Aditi Ghosh",
    "specialty": "ENT",
    "clinic": "Ghosh Health Clinic",
    "address": "179 Chennai Main Road",
    "city": "Chennai",
    "state": "India",
    "pincode": 930846,
    "phone": "+91-9897177105",
    "lat": 13.086766772239486,
    "lng": 80.2561663625026
  },
  {
    "name": "Dr. Rupal Das",
    "specialty": "ENT",
    "clinic": "Das Health Clinic",
    "address": "104 Pune Main Road",
    "city": "Pune",
    "state": "India",
    "pincode": 364110,
    "phone": "+91-7505984832",
    "lat": 18.529582434751692,
    "lng": 73.87261198989093
  },
  {
    "name": "Dr. Nirmala Khan",
    "specialty": "ENT",
    "clinic": "Khan Health Clinic",
    "address": "154 Chennai Main Road",
    "city": "Chennai",
    "state": "India",
    "pincode": 442261,
    "phone": "+91-8840644868",
    "lat": 13.101345935997344,
    "lng": 80.27754926189681
  },
  {
    "name": "Dr. Sayan Khan",
    "specialty": "ENT",
    "clinic": "Khan Health Clinic",
    "address": "130 Chennai Main Road",
    "city": "Chennai",
    "state": "India",
    "pincode": 474491,
    "phone": "+91-7156142157",
    "lat": 13.080537780600583,
    "lng": 80.2603633081292
  },
  {
    "name": "Dr. Aditi Shah",
    "specialty": "ENT",
    "clinic": "Shah Health Clinic",
    "address": "149 Pune Main Road",
    "city": "Pune",
    "state": "India",
    "pincode": 888237,
    "phone": "+91-6752765469",
    "lat": 18.51151595639629,
    "lng": 73.83938458006521
  },
  {
    "name": "Dr. Rohan Chakraborty",
    "specialty": "ENT",
    "clinic": "Chakraborty Health Clinic",
    "address": "31 Kolkata Main Road",
    "city": "Kolkata",
    "state": "India",
    "pincode": 831963,
    "phone": "+91-9236006233",
    "lat": 22.571867229824413,
    "lng": 88.35280141654725
  },
  {
    "name": "Dr. Anil Sengupta",
    "specialty": "ENT",
    "clinic": "Sengupta Health Clinic",
    "address": "199 Hyderabad Main Road",
    "city": "Hyderabad",
    "state": "India",
    "pincode": 454799,
    "phone": "+91-8097994422",
    "lat": 17.370883542093246,
    "lng": 78.49134029957335
  },
  {
    "name": "Dr. Rajesh Shah",
    "specialty": "ENT",
    "clinic": "Shah Health Clinic",
    "address": "61 Ahmedabad Main Road",
    "city": "Ahmedabad",
    "state": "India",
    "pincode": 250887,
    "phone": "+91-9918310143",
    "lat": 23.007082474675535,
    "lng": 72.57369679258268
  },
  {
    "name": "Dr. Aditi Das",
    "specialty": "ENT",
    "clinic": "Das Health Clinic",
    "address": "53 Mumbai Main Road",
    "city": "Mumbai",
    "state": "India",
    "pincode": 992752,
    "phone": "+91-9682899246",
    "lat": 19.07378859638679,
    "lng": 72.89167895027278
  },
  {
    "name": "Dr. Rita Kulkarni",
    "specialty": "ENT",
    "clinic": "Kulkarni Health Clinic",
    "address": "191 Ahmedabad Main Road",
    "city": "Ahmedabad",
    "state": "India",
    "pincode": 986974,
    "phone": "+91-7898138575",
    "lat": 23.039716951500303,
    "lng": 72.57201522036651
  },
  {
    "name": "Dr. Kavita Verma",
    "specialty": "ENT",
    "clinic": "Verma Health Clinic",
    "address": "148 Lucknow Main Road",
    "city": "Lucknow",
    "state": "India",
    "pincode": 505394,
    "phone": "+91-9288050559",
    "lat": 26.860350804555434,
    "lng": 80.94716174231144
  },
  {
    "name": "Dr. Sunita Verma",
    "specialty": "ENT",
    "clinic": "Verma Health Clinic",
    "address": "91 Ahmedabad Main Road",
    "city": "Ahmedabad",
    "state": "India",
    "pincode": 383474,
    "phone": "+91-8777009344",
    "lat": 23.014557854472812,
    "lng": 72.56838488008194
  },
  {
    "name": "Dr. Sayan Banerjee",
    "specialty": "ENT",
    "clinic": "Banerjee Health Clinic",
    "address": "32 Bengaluru Main Road",
    "city": "Bengaluru",
    "state": "India",
    "pincode": 172380,
    "phone": "+91-8222899376",
    "lat": 12.97740720007487,
    "lng": 77.5968653051837
  },
  {
    "name": "Dr. Manish Chakraborty",
    "specialty": "ENT",
    "clinic": "Chakraborty Health Clinic",
    "address": "133 Hyderabad Main Road",
    "city": "Hyderabad",
    "state": "India",
    "pincode": 385078,
    "phone": "+91-9293085600",
    "lat": 17.395273201473103,
    "lng": 78.49688185379526
  },
  {
    "name": "Dr. Latha Das",
    "specialty": "ENT",
    "clinic": "Das Health Clinic",
    "address": "38 Jaipur Main Road",
    "city": "Jaipur",
    "state": "India",
    "pincode": 280329,
    "phone": "+91-7084816017",
    "lat": 26.902969813301425,
    "lng": 75.78962336272346
  },
  {
    "name": "Dr. Ritu Shah",
    "specialty": "ENT",
    "clinic": "Shah Health Clinic",
    "address": "132 Jaipur Main Road",
    "city": "Jaipur",
    "state": "India",
    "pincode": 429917,
    "phone": "+91-7926291394",
    "lat": 26.90845407039281,
    "lng": 75.79935646485313
  },
  {
    "name": "Dr. Rohan Reddy",
    "specialty": "ENT",
    "clinic": "Reddy Health Clinic",
    "address": "118 Bengaluru Main Road",
    "city": "Bengaluru",
    "state": "India",
    "pincode": 470268,
    "phone": "+91-7431513890",
    "lat": 12.98883790067272,
    "lng": 77.60426010193466
  },
  {
    "name": "Dr. Meera Kulkarni",
    "specialty": "ENT",
    "clinic": "Kulkarni Health Clinic",
    "address": "144 Lucknow Main Road",
    "city": "Lucknow",
    "state": "India",
    "pincode": 750463,
    "phone": "+91-8052397682",
    "lat": 26.842110276250715,
    "lng": 80.93311017432082
  },
  {
    "name": "Dr. Rajesh Singh",
    "specialty": "ENT",
    "clinic": "Singh Health Clinic",
    "address": "86 Ahmedabad Main Road",
    "city": "Ahmedabad",
    "state": "India",
    "pincode": 262668,
    "phone": "+91-8982615391",
    "lat": 23.023155306547128,
    "lng": 72.55977244345192
  },
  {
    "name": "Dr. Rohan Kulkarni",
    "specialty": "ENT",
    "clinic": "Kulkarni Health Clinic",
    "address": "75 Bengaluru Main Road",
    "city": "Bengaluru",
    "state": "India",
    "pincode": 759240,
    "phone": "+91-8770981896",
    "lat": 12.960125894830254,
    "lng": 77.58043561955743
  },
  {
    "name": "Dr. Meera Patel",
    "specialty": "ENT",
    "clinic": "Patel Health Clinic",
    "address": "188 Delhi Main Road",
    "city": "Delhi",
    "state": "India",
    "pincode": 895124,
    "phone": "+91-6904038389",
    "lat": 28.723984608070154,
    "lng": 77.09664479473794
  },
  {
    "name": "Dr. Rupal Singh",
    "specialty": "ENT",
    "clinic": "Singh Health Clinic",
    "address": "195 Bengaluru Main Road",
    "city": "Bengaluru",
    "state": "India",
    "pincode": 795365,
    "phone": "+91-9849818376",
    "lat": 12.974596509852375,
    "lng": 77.57598040549995
  },
  {
    "name": "Dr. Anirban Rao",
    "specialty": "ENT",
    "clinic": "Rao Health Clinic",
    "address": "48 Lucknow Main Road",
    "city": "Lucknow",
    "state": "India",
    "pincode": 662839,
    "phone": "+91-7508438995",
    "lat": 26.8330504045609,
    "lng": 80.93281140342265
  },
  {
    "name": "Dr. Arjun Reddy",
    "specialty": "ENT",
    "clinic": "Reddy Health Clinic",
    "address": "75 Hyderabad Main Road",
    "city": "Hyderabad",
    "state": "India",
    "pincode": 405580,
    "phone": "+91-6697010623",
    "lat": 17.393248560056875,
    "lng": 78.50523295196695
  },
  {
    "name": "Dr. Ritu Ghosh",
    "specialty": "ENT",
    "clinic": "Ghosh Health Clinic",
    "address": "160 Kolkata Main Road",
    "city": "Kolkata",
    "state": "India",
    "pincode": 799067,
    "phone": "+91-8509500131",
    "lat": 22.556917191872515,
    "lng": 88.35941442059867
  },
  {
    "name": "Dr. Anirban Ghosh",
    "specialty": "ENT",
    "clinic": "Ghosh Health Clinic",
    "address": "176 Bengaluru Main Road",
    "city": "Bengaluru",
    "state": "India",
    "pincode": 896503,
    "phone": "+91-6813244496",
    "lat": 12.967940511728118,
    "lng": 77.60876608157585
  },
  {
    "name": "Dr. Kavita Sharma",
    "specialty": "ENT",
    "clinic": "Sharma Health Clinic",
    "address": "87 Bengaluru Main Road",
    "city": "Bengaluru",
    "state": "India",
    "pincode": 741475,
    "phone": "+91-6594431921",
    "lat": 12.990247986103324,
    "lng": 77.61150189157505
  },
  {
    "name": "Dr. Ritu Rao",
    "specialty": "ENT",
    "clinic": "Rao Health Clinic",
    "address": "66 Ahmedabad Main Road",
    "city": "Ahmedabad",
    "state": "India",
    "pincode": 526195,
    "phone": "+91-9637441417",
    "lat": 23.027269847481648,
    "lng": 72.5831703091572
  },
  {
    "name": "Dr. Vikram Mehta",
    "specialty": "ENT",
    "clinic": "Mehta Health Clinic",
    "address": "128 Ahmedabad Main Road",
    "city": "Ahmedabad",
    "state": "India",
    "pincode": 251150,
    "phone": "+91-6174580085",
    "lat": 23.00513073834255,
    "lng": 72.57346603952782
  },
  {
    "name": "Dr. Priya Rao",
    "specialty": "ENT",
    "clinic": "Rao Health Clinic",
    "address": "44 Jaipur Main Road",
    "city": "Jaipur",
    "state": "India",
    "pincode": 134201,
    "phone": "+91-7067536693",
    "lat": 26.9224847513373,
    "lng": 75.77960876212317
  },
  {
    "name": "Dr. Arjun Chakraborty",
    "specialty": "ENT",
    "clinic": "Chakraborty Health Clinic",
    "address": "37 Bengaluru Main Road",
    "city": "Bengaluru",
    "state": "India",
    "pincode": 533678,
    "phone": "+91-8892721617",
    "lat": 12.974396122683046,
    "lng": 77.58153470946175
  },
  {
    "name": "Dr. Anirban Das",
    "specialty": "Psychiatry",
    "clinic": "Das Health Clinic",
    "address": "102 Hyderabad Main Road",
    "city": "Hyderabad",
    "state": "India",
    "pincode": 791494,
    "phone": "+91-6803376522",
    "lat": 17.389814388773203,
    "lng": 78.46933377255226
  },
  {
    "name": "Dr. Rita Patel",
    "specialty": "Psychiatry",
    "clinic": "Patel Health Clinic",
    "address": "118 Delhi Main Road",
    "city": "Delhi",
    "state": "India",
    "pincode": 955883,
    "phone": "+91-7272116989",
    "lat": 28.706638790424186,
    "lng": 77.1033521208613
  },
  {
    "name": "Dr. Manish Sharma",
    "specialty": "Psychiatry",
    "clinic": "Sharma Health Clinic",
    "address": "106 Chennai Main Road",
    "city": "Chennai",
    "state": "India",
    "pincode": 351385,
    "phone": "+91-9032574962",
    "lat": 13.075085710431312,
    "lng": 80.287788487184
  },
  {
    "name": "Dr. Farheen Khan",
    "specialty": "Psychiatry",
    "clinic": "Khan Health Clinic",
    "address": "200 Pune Main Road",
    "city": "Pune",
    "state": "India",
    "pincode": 311143,
    "phone": "+91-6413546707",
    "lat": 18.52409622899325,
    "lng": 73.8503385145532
  },
  {
    "name": "Dr. Vikram Khan",
    "specialty": "Psychiatry",
    "clinic": "Khan Health Clinic",
    "address": "93 Ahmedabad Main Road",
    "city": "Ahmedabad",
    "state": "India",
    "pincode": 625979,
    "phone": "+91-9733206979",
    "lat": 23.034645464495252,
    "lng": 72.55417077861969
  },
  {
    "name": "Dr. Aditi Kulkarni",
    "specialty": "Psychiatry",
    "clinic": "Kulkarni Health Clinic",
    "address": "36 Ahmedabad Main Road",
    "city": "Ahmedabad",
    "state": "India",
    "pincode": 299907,
    "phone": "+91-9753018589",
    "lat": 23.010356982775168,
    "lng": 72.56909651763698
  },
  {
    "name": "Dr. Rohan Das",
    "specialty": "Psychiatry",
    "clinic": "Das Health Clinic",
    "address": "105 Ahmedabad Main Road",
    "city": "Ahmedabad",
    "state": "India",
    "pincode": 221857,
    "phone": "+91-9390905983",
    "lat": 23.031062670493224,
    "lng": 72.58595693220511
  },
  {
    "name": "Dr. Sneha Krishnan",
    "specialty": "Psychiatry",
    "clinic": "Krishnan Health Clinic",
    "address": "18 Jaipur Main Road",
    "city": "Jaipur",
    "state": "India",
    "pincode": 233205,
    "phone": "+91-8134736313",
    "lat": 26.895325959690656,
    "lng": 75.76875329599993
  },
  {
    "name": "Dr. Priya Sharma",
    "specialty": "Psychiatry",
    "clinic": "Sharma Health Clinic",
    "address": "189 Jaipur Main Road",
    "city": "Jaipur",
    "state": "India",
    "pincode": 719704,
    "phone": "+91-6723539419",
    "lat": 26.927352748869268,
    "lng": 75.76977651534227
  },
  {
    "name": "Dr. Vikram Sengupta",
    "specialty": "Psychiatry",
    "clinic": "Sengupta Health Clinic",
    "address": "199 Bengaluru Main Road",
    "city": "Bengaluru",
    "state": "India",
    "pincode": 344978,
    "phone": "+91-9146217243",
    "lat": 12.97346877646439,
    "lng": 77.58739093138968
  },
  {
    "name": "Dr. Meera Patel",
    "specialty": "Psychiatry",
    "clinic": "Patel Health Clinic",
    "address": "46 Chennai Main Road",
    "city": "Chennai",
    "state": "India",
    "pincode": 367543,
    "phone": "+91-8597965323",
    "lat": 13.083222333287786,
    "lng": 80.26643582884716
  },
  {
    "name": "Dr. Vikram Das",
    "specialty": "Psychiatry",
    "clinic": "Das Health Clinic",
    "address": "133 Ahmedabad Main Road",
    "city": "Ahmedabad",
    "state": "India",
    "pincode": 692155,
    "phone": "+91-9000975418",
    "lat": 23.00367477457342,
    "lng": 72.55557890941449
  },
  {
    "name": "Dr. Sneha Sengupta",
    "specialty": "Psychiatry",
    "clinic": "Sengupta Health Clinic",
    "address": "142 Hyderabad Main Road",
    "city": "Hyderabad",
    "state": "India",
    "pincode": 347525,
    "phone": "+91-7537653502",
    "lat": 17.38295257665431,
    "lng": 78.49139146498844
  },
  {
    "name": "Dr. Farheen Reddy",
    "specialty": "Psychiatry",
    "clinic": "Reddy Health Clinic",
    "address": "66 Lucknow Main Road",
    "city": "Lucknow",
    "state": "India",
    "pincode": 244208,
    "phone": "+91-9626173248",
    "lat": 26.851538028649223,
    "lng": 80.9433883063857
  },
  {
    "name": "Dr. Rajesh Banerjee",
    "specialty": "Psychiatry",
    "clinic": "Banerjee Health Clinic",
    "address": "115 Delhi Main Road",
    "city": "Delhi",
    "state": "India",
    "pincode": 719671,
    "phone": "+91-7885830434",
    "lat": 28.720123110519356,
    "lng": 77.10549458676529
  },
  {
    "name": "Dr. Meera Patel",
    "specialty": "Psychiatry",
    "clinic": "Patel Health Clinic",
    "address": "193 Mumbai Main Road",
    "city": "Mumbai",
    "state": "India",
    "pincode": 585818,
    "phone": "+91-7676156904",
    "lat": 19.084617253994857,
    "lng": 72.89132032810292
  },
  {
    "name": "Dr. Jay Chakraborty",
    "specialty": "Psychiatry",
    "clinic": "Chakraborty Health Clinic",
    "address": "153 Delhi Main Road",
    "city": "Delhi",
    "state": "India",
    "pincode": 754045,
    "phone": "+91-6613674040",
    "lat": 28.69600999865453,
    "lng": 77.11999746833979
  },
  {
    "name": "Dr. Arjun Khan",
    "specialty": "Psychiatry",
    "clinic": "Khan Health Clinic",
    "address": "177 Mumbai Main Road",
    "city": "Mumbai",
    "state": "India",
    "pincode": 352155,
    "phone": "+91-9465756300",
    "lat": 19.091545201438503,
    "lng": 72.85903178252897
  },
  {
    "name": "Dr. Nirmala Patel",
    "specialty": "Psychiatry",
    "clinic": "Patel Health Clinic",
    "address": "68 Hyderabad Main Road",
    "city": "Hyderabad",
    "state": "India",
    "pincode": 960416,
    "phone": "+91-7857924601",
    "lat": 17.402344245242595,
    "lng": 78.47795490313925
  },
  {
    "name": "Dr. Vikram Shah",
    "specialty": "Psychiatry",
    "clinic": "Shah Health Clinic",
    "address": "101 Lucknow Main Road",
    "city": "Lucknow",
    "state": "India",
    "pincode": 643010,
    "phone": "+91-7161691639",
    "lat": 26.863256327266875,
    "lng": 80.93130932087132
  },
  {
    "name": "Dr. Aditi Kulkarni",
    "specialty": "Psychiatry",
    "clinic": "Kulkarni Health Clinic",
    "address": "199 Mumbai Main Road",
    "city": "Mumbai",
    "state": "India",
    "pincode": 241609,
    "phone": "+91-7574312746",
    "lat": 19.061440183203867,
    "lng": 72.88100164855467
  },
  {
    "name": "Dr. Hina Banerjee",
    "specialty": "Psychiatry",
    "clinic": "Banerjee Health Clinic",
    "address": "161 Hyderabad Main Road",
    "city": "Hyderabad",
    "state": "India",
    "pincode": 686140,
    "phone": "+91-8814245895",
    "lat": 17.378452809660857,
    "lng": 78.47266867393165
  },
  {
    "name": "Dr. Aditi Banerjee",
    "specialty": "Psychiatry",
    "clinic": "Banerjee Health Clinic",
    "address": "66 Kolkata Main Road",
    "city": "Kolkata",
    "state": "India",
    "pincode": 149052,
    "phone": "+91-6612216033",
    "lat": 22.56348039709878,
    "lng": 88.368873690138
  },
  {
    "name": "Dr. Priya Khan",
    "specialty": "Psychiatry",
    "clinic": "Khan Health Clinic",
    "address": "127 Hyderabad Main Road",
    "city": "Hyderabad",
    "state": "India",
    "pincode": 130249,
    "phone": "+91-6805533631",
    "lat": 17.398350678574648,
    "lng": 78.50328222843868
  },
  {
    "name": "Dr. Manish Sharma",
    "specialty": "Psychiatry",
    "clinic": "Sharma Health Clinic",
    "address": "103 Delhi Main Road",
    "city": "Delhi",
    "state": "India",
    "pincode": 569951,
    "phone": "+91-8286524802",
    "lat": 28.687801896275694,
    "lng": 77.09100682532717
  },
  {
    "name": "Dr. Anil Das",
    "specialty": "Psychiatry",
    "clinic": "Das Health Clinic",
    "address": "78 Bengaluru Main Road",
    "city": "Bengaluru",
    "state": "India",
    "pincode": 523191,
    "phone": "+91-8300566085",
    "lat": 12.96297092541871,
    "lng": 77.59394297981584
  },
  {
    "name": "Dr. Farheen Sengupta",
    "specialty": "Psychiatry",
    "clinic": "Sengupta Health Clinic",
    "address": "186 Mumbai Main Road",
    "city": "Mumbai",
    "state": "India",
    "pincode": 404523,
    "phone": "+91-6069825492",
    "lat": 19.090437110972466,
    "lng": 72.89655101044946
  },
  {
    "name": "Dr. Rohan Verma",
    "specialty": "Psychiatry",
    "clinic": "Verma Health Clinic",
    "address": "141 Bengaluru Main Road",
    "city": "Bengaluru",
    "state": "India",
    "pincode": 209681,
    "phone": "+91-6449860864",
    "lat": 12.97160649681685,
    "lng": 77.58443414600974
  },
  {
    "name": "Dr. Sunita Das",
    "specialty": "Psychiatry",
    "clinic": "Das Health Clinic",
    "address": "61 Lucknow Main Road",
    "city": "Lucknow",
    "state": "India",
    "pincode": 708948,
    "phone": "+91-9101871550",
    "lat": 26.856111438314993,
    "lng": 80.94657987920917
  },
  {
    "name": "Dr. Rupal Verma",
    "specialty": "Psychiatry",
    "clinic": "Verma Health Clinic",
    "address": "23 Ahmedabad Main Road",
    "city": "Ahmedabad",
    "state": "India",
    "pincode": 662972,
    "phone": "+91-9300723303",
    "lat": 23.028180782127553,
    "lng": 72.57775438134588
  },
  {
    "name": "Dr. Sayan Reddy",
    "specialty": "Psychiatry",
    "clinic": "Reddy Health Clinic",
    "address": "178 Ahmedabad Main Road",
    "city": "Ahmedabad",
    "state": "India",
    "pincode": 616308,
    "phone": "+91-7565436055",
    "lat": 23.010093569950776,
    "lng": 72.58259582827237
  },
  {
    "name": "Dr. Meera Khan",
    "specialty": "Psychiatry",
    "clinic": "Khan Health Clinic",
    "address": "62 Ahmedabad Main Road",
    "city": "Ahmedabad",
    "state": "India",
    "pincode": 334604,
    "phone": "+91-8080687842",
    "lat": 23.03014822499184,
    "lng": 72.55262374174966
  },
  {
    "name": "Dr. Rupal Khan",
    "specialty": "Psychiatry",
    "clinic": "Khan Health Clinic",
    "address": "133 Delhi Main Road",
    "city": "Delhi",
    "state": "India",
    "pincode": 169697,
    "phone": "+91-8756624897",
    "lat": 28.717655870643426,
    "lng": 77.09301148135552
  },
  {
    "name": "Dr. Sunita Rao",
    "specialty": "Psychiatry",
    "clinic": "Rao Health Clinic",
    "address": "42 Kolkata Main Road",
    "city": "Kolkata",
    "state": "India",
    "pincode": 461196,
    "phone": "+91-8836320751",
    "lat": 22.581489627227423,
    "lng": 88.35589924938245
  },
  {
    "name": "Dr. Kavita Sengupta",
    "specialty": "Psychiatry",
    "clinic": "Sengupta Health Clinic",
    "address": "105 Lucknow Main Road",
    "city": "Lucknow",
    "state": "India",
    "pincode": 303788,
    "phone": "+91-8165070975",
    "lat": 26.85056624043033,
    "lng": 80.95469079716828
  },
  {
    "name": "Dr. Rupal Chakraborty",
    "specialty": "Psychiatry",
    "clinic": "Chakraborty Health Clinic",
    "address": "125 Pune Main Road",
    "city": "Pune",
    "state": "India",
    "pincode": 488873,
    "phone": "+91-9566461630",
    "lat": 18.5206947444168,
    "lng": 73.8515102996227
  },
  {
    "name": "Dr. Sunita Verma",
    "specialty": "Psychiatry",
    "clinic": "Verma Health Clinic",
    "address": "28 Kolkata Main Road",
    "city": "Kolkata",
    "state": "India",
    "pincode": 900717,
    "phone": "+91-7314350564",
    "lat": 22.565648826446484,
    "lng": 88.38349405789512
  },
  {
    "name": "Dr. Sunita Chakraborty",
    "specialty": "Psychiatry",
    "clinic": "Chakraborty Health Clinic",
    "address": "124 Mumbai Main Road",
    "city": "Mumbai",
    "state": "India",
    "pincode": 300663,
    "phone": "+91-7885351164",
    "lat": 19.08429911761281,
    "lng": 72.88792305470574
  },
  {
    "name": "Dr. Sayan Shah",
    "specialty": "Psychiatry",
    "clinic": "Shah Health Clinic",
    "address": "181 Kolkata Main Road",
    "city": "Kolkata",
    "state": "India",
    "pincode": 653725,
    "phone": "+91-7526458982",
    "lat": 22.57971178251436,
    "lng": 88.38302006437516
  },
  {
    "name": "Dr. Rupal Ghosh",
    "specialty": "Psychiatry",
    "clinic": "Ghosh Health Clinic",
    "address": "166 Chennai Main Road",
    "city": "Chennai",
    "state": "India",
    "pincode": 257451,
    "phone": "+91-9348062347",
    "lat": 13.074989039453104,
    "lng": 80.27132823652752
  },
  {
    "name": "Dr. Aditi Sharma",
    "specialty": "Psychiatry",
    "clinic": "Sharma Health Clinic",
    "address": "87 Ahmedabad Main Road",
    "city": "Ahmedabad",
    "state": "India",
    "pincode": 322618,
    "phone": "+91-9548404068",
    "lat": 23.03809800672319,
    "lng": 72.55871197649086
  },
  {
    "name": "Dr. Sunita Sengupta",
    "specialty": "Psychiatry",
    "clinic": "Sengupta Health Clinic",
    "address": "134 Hyderabad Main Road",
    "city": "Hyderabad",
    "state": "India",
    "pincode": 810168,
    "phone": "+91-8088641529",
    "lat": 17.39626615226964,
    "lng": 78.49240530380052
  },
  {
    "name": "Dr. Rupal Reddy",
    "specialty": "Psychiatry",
    "clinic": "Reddy Health Clinic",
    "address": "137 Hyderabad Main Road",
    "city": "Hyderabad",
    "state": "India",
    "pincode": 445115,
    "phone": "+91-6093926984",
    "lat": 17.39549734445974,
    "lng": 78.48958183015877
  },
  {
    "name": "Dr. Sunita Kulkarni",
    "specialty": "Psychiatry",
    "clinic": "Kulkarni Health Clinic",
    "address": "195 Mumbai Main Road",
    "city": "Mumbai",
    "state": "India",
    "pincode": 328427,
    "phone": "+91-6381743864",
    "lat": 19.07407358548342,
    "lng": 72.87776351022826
  },
  {
    "name": "Dr. Meera Kulkarni",
    "specialty": "Psychiatry",
    "clinic": "Kulkarni Health Clinic",
    "address": "92 Chennai Main Road",
    "city": "Chennai",
    "state": "India",
    "pincode": 799610,
    "phone": "+91-9548676383",
    "lat": 13.09765245038299,
    "lng": 80.25634822955507
  },
  {
    "name": "Dr. Rohan Chakraborty",
    "specialty": "Psychiatry",
    "clinic": "Chakraborty Health Clinic",
    "address": "129 Delhi Main Road",
    "city": "Delhi",
    "state": "India",
    "pincode": 576183,
    "phone": "+91-9114552942",
    "lat": 28.707486074975982,
    "lng": 77.1036301547205
  },
  {
    "name": "Dr. Sunita Chakraborty",
    "specialty": "Psychiatry",
    "clinic": "Chakraborty Health Clinic",
    "address": "26 Kolkata Main Road",
    "city": "Kolkata",
    "state": "India",
    "pincode": 160866,
    "phone": "+91-9655072083",
    "lat": 22.588328751315203,
    "lng": 88.35356427695254
  },
  {
    "name": "Dr. Nidhi Mehta",
    "specialty": "Psychiatry",
    "clinic": "Mehta Health Clinic",
    "address": "78 Jaipur Main Road",
    "city": "Jaipur",
    "state": "India",
    "pincode": 629751,
    "phone": "+91-9248979309",
    "lat": 26.90203973522333,
    "lng": 75.7847501804945
  },
  {
    "name": "Dr. Rohan Reddy",
    "specialty": "Psychiatry",
    "clinic": "Reddy Health Clinic",
    "address": "123 Mumbai Main Road",
    "city": "Mumbai",
    "state": "India",
    "pincode": 189480,
    "phone": "+91-9851014504",
    "lat": 19.094269970317374,
    "lng": 72.89085344731397
  },
  {
    "name": "Dr. Jay Verma",
    "specialty": "Psychiatry",
    "clinic": "Verma Health Clinic",
    "address": "22 Jaipur Main Road",
    "city": "Jaipur",
    "state": "India",
    "pincode": 439078,
    "phone": "+91-7985899770",
    "lat": 26.894524483976124,
    "lng": 75.78410409587119
  },
  {
    "name": "Dr. Kavita Kulkarni",
    "specialty": "Psychiatry",
    "clinic": "Kulkarni Health Clinic",
    "address": "16 Jaipur Main Road",
    "city": "Jaipur",
    "state": "India",
    "pincode": 157262,
    "phone": "+91-6340041190",
    "lat": 26.91154095268552,
    "lng": 75.79541374634164
  },
  {
    "name": "Dr. Aditi Verma",
    "specialty": "Psychiatry",
    "clinic": "Verma Health Clinic",
    "address": "78 Mumbai Main Road",
    "city": "Mumbai",
    "state": "India",
    "pincode": 824107,
    "phone": "+91-6988049542",
    "lat": 19.062281578805585,
    "lng": 72.8592660872432
  },
  {
    "name": "Dr. Nidhi Mehta",
    "specialty": "Psychiatry",
    "clinic": "Mehta Health Clinic",
    "address": "100 Pune Main Road",
    "city": "Pune",
    "state": "India",
    "pincode": 647983,
    "phone": "+91-6711847412",
    "lat": 18.52101096515532,
    "lng": 73.85841411873555
  },
  {
    "name": "Dr. Rajesh Mehta",
    "specialty": "Psychiatry",
    "clinic": "Mehta Health Clinic",
    "address": "107 Delhi Main Road",
    "city": "Delhi",
    "state": "India",
    "pincode": 904601,
    "phone": "+91-8980088807",
    "lat": 28.70232256291867,
    "lng": 77.10460293913295
  },
  {
    "name": "Dr. Arjun Kulkarni",
    "specialty": "Psychiatry",
    "clinic": "Kulkarni Health Clinic",
    "address": "24 Chennai Main Road",
    "city": "Chennai",
    "state": "India",
    "pincode": 471399,
    "phone": "+91-6035011261",
    "lat": 13.070332113791714,
    "lng": 80.2711102595467
  },
  {
    "name": "Dr. Nidhi Reddy",
    "specialty": "Psychiatry",
    "clinic": "Reddy Health Clinic",
    "address": "81 Chennai Main Road",
    "city": "Chennai",
    "state": "India",
    "pincode": 796235,
    "phone": "+91-7271309560",
    "lat": 13.101746667348891,
    "lng": 80.26145255417727
  },
  {
    "name": "Dr. Priya Reddy",
    "specialty": "Psychiatry",
    "clinic": "Reddy Health Clinic",
    "address": "50 Chennai Main Road",
    "city": "Chennai",
    "state": "India",
    "pincode": 759269,
    "phone": "+91-8882465950",
    "lat": 13.091429116417604,
    "lng": 80.2803692355897
  },
  {
    "name": "Dr. Nirmala Khan",
    "specialty": "Psychiatry",
    "clinic": "Khan Health Clinic",
    "address": "70 Chennai Main Road",
    "city": "Chennai",
    "state": "India",
    "pincode": 856037,
    "phone": "+91-9371862805",
    "lat": 13.085471260594588,
    "lng": 80.27602618459758
  },
  {
    "name": "Dr. Ritu Mehta",
    "specialty": "Psychiatry",
    "clinic": "Mehta Health Clinic",
    "address": "87 Delhi Main Road",
    "city": "Delhi",
    "state": "India",
    "pincode": 804024,
    "phone": "+91-9793835708",
    "lat": 28.699801910460295,
    "lng": 77.09697088368185
  },
  {
    "name": "Dr. Farheen Sharma",
    "specialty": "Psychiatry",
    "clinic": "Sharma Health Clinic",
    "address": "51 Kolkata Main Road",
    "city": "Kolkata",
    "state": "India",
    "pincode": 167457,
    "phone": "+91-6451672601",
    "lat": 22.583861983606862,
    "lng": 88.37302262088646
  },
  {
    "name": "Dr. Kavita Rao",
    "specialty": "Psychiatry",
    "clinic": "Rao Health Clinic",
    "address": "85 Jaipur Main Road",
    "city": "Jaipur",
    "state": "India",
    "pincode": 129283,
    "phone": "+91-8329924933",
    "lat": 26.932229637011645,
    "lng": 75.7851638930918
  },
  {
    "name": "Dr. Meera Kulkarni",
    "specialty": "Psychiatry",
    "clinic": "Kulkarni Health Clinic",
    "address": "12 Hyderabad Main Road",
    "city": "Hyderabad",
    "state": "India",
    "pincode": 190496,
    "phone": "+91-8476496230",
    "lat": 17.399843911468725,
    "lng": 78.50613811155058
  },
  {
    "name": "Dr. Rohan Sengupta",
    "specialty": "Urology",
    "clinic": "Sengupta Health Clinic",
    "address": "73 Jaipur Main Road",
    "city": "Jaipur",
    "state": "India",
    "pincode": 274014,
    "phone": "+91-7824182389",
    "lat": 26.896195528665643,
    "lng": 75.806916562098
  },
  {
    "name": "Dr. Rohan Sharma",
    "specialty": "Urology",
    "clinic": "Sharma Health Clinic",
    "address": "73 Chennai Main Road",
    "city": "Chennai",
    "state": "India",
    "pincode": 775573,
    "phone": "+91-6495639538",
    "lat": 13.092608376314104,
    "lng": 80.2723448363606
  },
  {
    "name": "Dr. Hina Banerjee",
    "specialty": "Urology",
    "clinic": "Banerjee Health Clinic",
    "address": "54 Lucknow Main Road",
    "city": "Lucknow",
    "state": "India",
    "pincode": 128871,
    "phone": "+91-6960019677",
    "lat": 26.852362303344467,
    "lng": 80.96251731773683
  },
  {
    "name": "Dr. Ritu Singh",
    "specialty": "Urology",
    "clinic": "Singh Health Clinic",
    "address": "113 Hyderabad Main Road",
    "city": "Hyderabad",
    "state": "India",
    "pincode": 677752,
    "phone": "+91-8599211617",
    "lat": 17.373871010788825,
    "lng": 78.46758969891667
  },
  {
    "name": "Dr. Latha Chakraborty",
    "specialty": "Urology",
    "clinic": "Chakraborty Health Clinic",
    "address": "44 Delhi Main Road",
    "city": "Delhi",
    "state": "India",
    "pincode": 906566,
    "phone": "+91-9104200490",
    "lat": 28.713667539821447,
    "lng": 77.08865036781208
  },
  {
    "name": "Dr. Anirban Patel",
    "specialty": "Urology",
    "clinic": "Patel Health Clinic",
    "address": "82 Chennai Main Road",
    "city": "Chennai",
    "state": "India",
    "pincode": 316703,
    "phone": "+91-8242661500",
    "lat": 13.098396970017381,
    "lng": 80.27345260214368
  },
  {
    "name": "Dr. Jay Patel",
    "specialty": "Urology",
    "clinic": "Patel Health Clinic",
    "address": "41 Chennai Main Road",
    "city": "Chennai",
    "state": "India",
    "pincode": 698875,
    "phone": "+91-6932779188",
    "lat": 13.098738236114501,
    "lng": 80.27723269864691
  },
  {
    "name": "Dr. Nidhi Das",
    "specialty": "Urology",
    "clinic": "Das Health Clinic",
    "address": "57 Mumbai Main Road",
    "city": "Mumbai",
    "state": "India",
    "pincode": 198463,
    "phone": "+91-7132778784",
    "lat": 19.060170459099606,
    "lng": 72.86871655605952
  },
  {
    "name": "Dr. Rita Shah",
    "specialty": "Urology",
    "clinic": "Shah Health Clinic",
    "address": "88 Delhi Main Road",
    "city": "Delhi",
    "state": "India",
    "pincode": 420433,
    "phone": "+91-6087763520",
    "lat": 28.708166284031236,
    "lng": 77.08610739782014
  },
  {
    "name": "Dr. Ritu Reddy",
    "specialty": "Urology",
    "clinic": "Reddy Health Clinic",
    "address": "156 Kolkata Main Road",
    "city": "Kolkata",
    "state": "India",
    "pincode": 233908,
    "phone": "+91-6170888609",
    "lat": 22.564402386886044,
    "lng": 88.3539828802304
  },
  {
    "name": "Dr. Ritu Shah",
    "specialty": "Urology",
    "clinic": "Shah Health Clinic",
    "address": "48 Mumbai Main Road",
    "city": "Mumbai",
    "state": "India",
    "pincode": 711127,
    "phone": "+91-6088638630",
    "lat": 19.063879459224832,
    "lng": 72.88430451748347
  },
  {
    "name": "Dr. Rita Sharma",
    "specialty": "Urology",
    "clinic": "Sharma Health Clinic",
    "address": "98 Ahmedabad Main Road",
    "city": "Ahmedabad",
    "state": "India",
    "pincode": 520963,
    "phone": "+91-6090354427",
    "lat": 23.033572901992617,
    "lng": 72.5690436518751
  },
  {
    "name": "Dr. Rupal Chakraborty",
    "specialty": "Urology",
    "clinic": "Chakraborty Health Clinic",
    "address": "46 Mumbai Main Road",
    "city": "Mumbai",
    "state": "India",
    "pincode": 688016,
    "phone": "+91-8172024754",
    "lat": 19.08794625509385,
    "lng": 72.88635898928672
  },
  {
    "name": "Dr. Nirmala Sharma",
    "specialty": "Urology",
    "clinic": "Sharma Health Clinic",
    "address": "21 Jaipur Main Road",
    "city": "Jaipur",
    "state": "India",
    "pincode": 812732,
    "phone": "+91-6648197277",
    "lat": 26.91157581663386,
    "lng": 75.79178254665977
  },
  {
    "name": "Dr. Hina Patel",
    "specialty": "Urology",
    "clinic": "Patel Health Clinic",
    "address": "102 Lucknow Main Road",
    "city": "Lucknow",
    "state": "India",
    "pincode": 168777,
    "phone": "+91-6573065112",
    "lat": 26.851009007565743,
    "lng": 80.9280946301502
  },
  {
    "name": "Dr. Kavita Patel",
    "specialty": "Urology",
    "clinic": "Patel Health Clinic",
    "address": "18 Jaipur Main Road",
    "city": "Jaipur",
    "state": "India",
    "pincode": 441321,
    "phone": "+91-7755622706",
    "lat": 26.9046332718521,
    "lng": 75.7952497631404
  },
  {
    "name": "Dr. Kavita Reddy",
    "specialty": "Urology",
    "clinic": "Reddy Health Clinic",
    "address": "149 Kolkata Main Road",
    "city": "Kolkata",
    "state": "India",
    "pincode": 470446,
    "phone": "+91-8888731564",
    "lat": 22.576016917133963,
    "lng": 88.36465523287956
  },
  {
    "name": "Dr. Manish Chakraborty",
    "specialty": "Urology",
    "clinic": "Chakraborty Health Clinic",
    "address": "53 Hyderabad Main Road",
    "city": "Hyderabad",
    "state": "India",
    "pincode": 856120,
    "phone": "+91-8283391338",
    "lat": 17.390026351114972,
    "lng": 78.50196799766873
  },
  {
    "name": "Dr. Nirmala Mehta",
    "specialty": "Urology",
    "clinic": "Mehta Health Clinic",
    "address": "62 Hyderabad Main Road",
    "city": "Hyderabad",
    "state": "India",
    "pincode": 640350,
    "phone": "+91-6606100499",
    "lat": 17.368414953591895,
    "lng": 78.50232972037
  },
  {
    "name": "Dr. Rajesh Patel",
    "specialty": "Urology",
    "clinic": "Patel Health Clinic",
    "address": "98 Jaipur Main Road",
    "city": "Jaipur",
    "state": "India",
    "pincode": 168351,
    "phone": "+91-8488080873",
    "lat": 26.922341709092734,
    "lng": 75.79818141096713
  },
  {
    "name": "Dr. Anil Sengupta",
    "specialty": "Urology",
    "clinic": "Sengupta Health Clinic",
    "address": "137 Lucknow Main Road",
    "city": "Lucknow",
    "state": "India",
    "pincode": 219839,
    "phone": "+91-8151140348",
    "lat": 26.83983946818696,
    "lng": 80.93361925939263
  },
  {
    "name": "Dr. Sunita Khan",
    "specialty": "Urology",
    "clinic": "Khan Health Clinic",
    "address": "23 Mumbai Main Road",
    "city": "Mumbai",
    "state": "India",
    "pincode": 984119,
    "phone": "+91-6565789040",
    "lat": 19.081537378396757,
    "lng": 72.88730927661862
  },
  {
    "name": "Dr. Kavita Singh",
    "specialty": "Urology",
    "clinic": "Singh Health Clinic",
    "address": "108 Jaipur Main Road",
    "city": "Jaipur",
    "state": "India",
    "pincode": 977464,
    "phone": "+91-6629218839",
    "lat": 26.900964853633937,
    "lng": 75.78263450781348
  },
  {
    "name": "Dr. Sayan Sengupta",
    "specialty": "Urology",
    "clinic": "Sengupta Health Clinic",
    "address": "134 Lucknow Main Road",
    "city": "Lucknow",
    "state": "India",
    "pincode": 889599,
    "phone": "+91-6386148768",
    "lat": 26.828907600082303,
    "lng": 80.93921111134719
  },
  {
    "name": "Dr. Rajesh Patel",
    "specialty": "Urology",
    "clinic": "Patel Health Clinic",
    "address": "37 Delhi Main Road",
    "city": "Delhi",
    "state": "India",
    "pincode": 146725,
    "phone": "+91-6167574943",
    "lat": 28.688267532290702,
    "lng": 77.1124913400165
  },
  {
    "name": "Dr. Rajesh Banerjee",
    "specialty": "Urology",
    "clinic": "Banerjee Health Clinic",
    "address": "57 Kolkata Main Road",
    "city": "Kolkata",
    "state": "India",
    "pincode": 673379,
    "phone": "+91-6334634344",
    "lat": 22.572649283862624,
    "lng": 88.36670006230051
  },
  {
    "name": "Dr. Rita Chakraborty",
    "specialty": "Urology",
    "clinic": "Chakraborty Health Clinic",
    "address": "120 Kolkata Main Road",
    "city": "Kolkata",
    "state": "India",
    "pincode": 540801,
    "phone": "+91-6860791944",
    "lat": 22.556921394586528,
    "lng": 88.34434602507189
  },
  {
    "name": "Dr. Farheen Sharma",
    "specialty": "Urology",
    "clinic": "Sharma Health Clinic",
    "address": "146 Pune Main Road",
    "city": "Pune",
    "state": "India",
    "pincode": 528784,
    "phone": "+91-7467509312",
    "lat": 18.506005275769528,
    "lng": 73.86342457453739
  },
  {
    "name": "Dr. Kavita Das",
    "specialty": "Urology",
    "clinic": "Das Health Clinic",
    "address": "171 Mumbai Main Road",
    "city": "Mumbai",
    "state": "India",
    "pincode": 466478,
    "phone": "+91-9102256246",
    "lat": 19.09128034404953,
    "lng": 72.8593399748629
  },
  {
    "name": "Dr. Ritu Patel",
    "specialty": "Urology",
    "clinic": "Patel Health Clinic",
    "address": "189 Delhi Main Road",
    "city": "Delhi",
    "state": "India",
    "pincode": 846780,
    "phone": "+91-6963529545",
    "lat": 28.718848046502238,
    "lng": 77.1123534305202
  },
  {
    "name": "Dr. Farheen Banerjee",
    "specialty": "Urology",
    "clinic": "Banerjee Health Clinic",
    "address": "60 Hyderabad Main Road",
    "city": "Hyderabad",
    "state": "India",
    "pincode": 881253,
    "phone": "+91-9886290854",
    "lat": 17.384807243062284,
    "lng": 78.47977723518011
  },
  {
    "name": "Dr. Rita Reddy",
    "specialty": "Urology",
    "clinic": "Reddy Health Clinic",
    "address": "162 Hyderabad Main Road",
    "city": "Hyderabad",
    "state": "India",
    "pincode": 685027,
    "phone": "+91-7098639141",
    "lat": 17.37833887443694,
    "lng": 78.50448834353631
  },
  {
    "name": "Dr. Sneha Patel",
    "specialty": "Urology",
    "clinic": "Patel Health Clinic",
    "address": "88 Bengaluru Main Road",
    "city": "Bengaluru",
    "state": "India",
    "pincode": 886512,
    "phone": "+91-6891592739",
    "lat": 12.952854661514763,
    "lng": 77.57713397652228
  },
  {
    "name": "Dr. Vikram Patel",
    "specialty": "Urology",
    "clinic": "Patel Health Clinic",
    "address": "42 Ahmedabad Main Road",
    "city": "Ahmedabad",
    "state": "India",
    "pincode": 330585,
    "phone": "+91-9997697351",
    "lat": 23.021838617888214,
    "lng": 72.5573360422745
  },
  {
    "name": "Dr. Rita Chakraborty",
    "specialty": "Urology",
    "clinic": "Chakraborty Health Clinic",
    "address": "11 Ahmedabad Main Road",
    "city": "Ahmedabad",
    "state": "India",
    "pincode": 947888,
    "phone": "+91-7893046947",
    "lat": 23.020107324746927,
    "lng": 72.56017731160786
  },
  {
    "name": "Dr. Jay Mehta",
    "specialty": "Urology",
    "clinic": "Mehta Health Clinic",
    "address": "45 Jaipur Main Road",
    "city": "Jaipur",
    "state": "India",
    "pincode": 304962,
    "phone": "+91-9054917222",
    "lat": 26.90290856269286,
    "lng": 75.78009831054598
  },
  {
    "name": "Dr. Arjun Das",
    "specialty": "Urology",
    "clinic": "Das Health Clinic",
    "address": "75 Hyderabad Main Road",
    "city": "Hyderabad",
    "state": "India",
    "pincode": 167002,
    "phone": "+91-7736701099",
    "lat": 17.39252219245284,
    "lng": 78.47382492358642
  },
  {
    "name": "Dr. Rajesh Reddy",
    "specialty": "Urology",
    "clinic": "Reddy Health Clinic",
    "address": "140 Bengaluru Main Road",
    "city": "Bengaluru",
    "state": "India",
    "pincode": 945202,
    "phone": "+91-6385336395",
    "lat": 12.986655394303202,
    "lng": 77.59518819833555
  },
  {
    "name": "Dr. Rajesh Shah",
    "specialty": "Urology",
    "clinic": "Shah Health Clinic",
    "address": "188 Bengaluru Main Road",
    "city": "Bengaluru",
    "state": "India",
    "pincode": 345110,
    "phone": "+91-6620832786",
    "lat": 12.961158687933118,
    "lng": 77.6093424779156
  },
  {
    "name": "Dr. Nirmala Sengupta",
    "specialty": "Urology",
    "clinic": "Sengupta Health Clinic",
    "address": "65 Chennai Main Road",
    "city": "Chennai",
    "state": "India",
    "pincode": 359879,
    "phone": "+91-9452964348",
    "lat": 13.074829115758849,
    "lng": 80.25259176274595
  },
  {
    "name": "Dr. Rohan Chakraborty",
    "specialty": "Urology",
    "clinic": "Chakraborty Health Clinic",
    "address": "173 Mumbai Main Road",
    "city": "Mumbai",
    "state": "India",
    "pincode": 455780,
    "phone": "+91-8120870207",
    "lat": 19.05924338733348,
    "lng": 72.87948516941037
  },
  {
    "name": "Dr. Sneha Singh",
    "specialty": "Urology",
    "clinic": "Singh Health Clinic",
    "address": "100 Hyderabad Main Road",
    "city": "Hyderabad",
    "state": "India",
    "pincode": 281312,
    "phone": "+91-7951825224",
    "lat": 17.400907676731205,
    "lng": 78.50444136108946
  },
  {
    "name": "Dr. Rita Sengupta",
    "specialty": "Urology",
    "clinic": "Sengupta Health Clinic",
    "address": "149 Pune Main Road",
    "city": "Pune",
    "state": "India",
    "pincode": 184781,
    "phone": "+91-7084372118",
    "lat": 18.506959561376124,
    "lng": 73.87575759109848
  },
  {
    "name": "Dr. Anirban Ghosh",
    "specialty": "Urology",
    "clinic": "Ghosh Health Clinic",
    "address": "124 Ahmedabad Main Road",
    "city": "Ahmedabad",
    "state": "India",
    "pincode": 146168,
    "phone": "+91-8080562572",
    "lat": 23.017921122414165,
    "lng": 72.57703743935083
  },
  {
    "name": "Dr. Sunita Patel",
    "specialty": "Urology",
    "clinic": "Patel Health Clinic",
    "address": "59 Pune Main Road",
    "city": "Pune",
    "state": "India",
    "pincode": 669622,
    "phone": "+91-9899698015",
    "lat": 18.52674808966971,
    "lng": 73.85554558698476
  },
  {
    "name": "Dr. Meera Sharma",
    "specialty": "Urology",
    "clinic": "Sharma Health Clinic",
    "address": "150 Delhi Main Road",
    "city": "Delhi",
    "state": "India",
    "pincode": 951757,
    "phone": "+91-9093141353",
    "lat": 28.69146227366247,
    "lng": 77.0988140546409
  },
  {
    "name": "Dr. Nirmala Krishnan",
    "specialty": "Urology",
    "clinic": "Krishnan Health Clinic",
    "address": "107 Mumbai Main Road",
    "city": "Mumbai",
    "state": "India",
    "pincode": 760286,
    "phone": "+91-9609209117",
    "lat": 19.07083414681331,
    "lng": 72.87787842215052
  },
  {
    "name": "Dr. Rajesh Banerjee",
    "specialty": "Urology",
    "clinic": "Banerjee Health Clinic",
    "address": "181 Lucknow Main Road",
    "city": "Lucknow",
    "state": "India",
    "pincode": 816784,
    "phone": "+91-8751432958",
    "lat": 26.839358406829263,
    "lng": 80.95726829363153
  },
  {
    "name": "Dr. Vikram Khan",
    "specialty": "Urology",
    "clinic": "Khan Health Clinic",
    "address": "200 Delhi Main Road",
    "city": "Delhi",
    "state": "India",
    "pincode": 254719,
    "phone": "+91-9040797166",
    "lat": 28.71338763636298,
    "lng": 77.11669142848386
  },
  {
    "name": "Dr. Hina Shah",
    "specialty": "Urology",
    "clinic": "Shah Health Clinic",
    "address": "197 Chennai Main Road",
    "city": "Chennai",
    "state": "India",
    "pincode": 192238,
    "phone": "+91-9567422728",
    "lat": 13.085561381921842,
    "lng": 80.25531581960949
  },
  {
    "name": "Dr. Rajesh Patel",
    "specialty": "Urology",
    "clinic": "Patel Health Clinic",
    "address": "188 Delhi Main Road",
    "city": "Delhi",
    "state": "India",
    "pincode": 594813,
    "phone": "+91-8840710136",
    "lat": 28.696150189055153,
    "lng": 77.1020976258016
  },
  {
    "name": "Dr. Ritu Chakraborty",
    "specialty": "Urology",
    "clinic": "Chakraborty Health Clinic",
    "address": "146 Bengaluru Main Road",
    "city": "Bengaluru",
    "state": "India",
    "pincode": 696916,
    "phone": "+91-8551415879",
    "lat": 12.982234172881965,
    "lng": 77.58697229246259
  },
  {
    "name": "Dr. Vikram Reddy",
    "specialty": "Urology",
    "clinic": "Reddy Health Clinic",
    "address": "96 Jaipur Main Road",
    "city": "Jaipur",
    "state": "India",
    "pincode": 976926,
    "phone": "+91-6301360138",
    "lat": 26.90540878458205,
    "lng": 75.77750999974178
  },
  {
    "name": "Dr. Meera Chakraborty",
    "specialty": "Urology",
    "clinic": "Chakraborty Health Clinic",
    "address": "168 Jaipur Main Road",
    "city": "Jaipur",
    "state": "India",
    "pincode": 319228,
    "phone": "+91-9570904075",
    "lat": 26.911660241464876,
    "lng": 75.77015553816598
  },
  {
    "name": "Dr. Anil Sharma",
    "specialty": "Urology",
    "clinic": "Sharma Health Clinic",
    "address": "11 Hyderabad Main Road",
    "city": "Hyderabad",
    "state": "India",
    "pincode": 643346,
    "phone": "+91-9576931540",
    "lat": 17.36897232733015,
    "lng": 78.49379557473952
  },
  {
    "name": "Dr. Rita Kulkarni",
    "specialty": "Urology",
    "clinic": "Kulkarni Health Clinic",
    "address": "19 Kolkata Main Road",
    "city": "Kolkata",
    "state": "India",
    "pincode": 952468,
    "phone": "+91-6419770415",
    "lat": 22.557095544419475,
    "lng": 88.38097467948921
  },
  {
    "name": "Dr. Kavita Ghosh",
    "specialty": "Urology",
    "clinic": "Ghosh Health Clinic",
    "address": "176 Jaipur Main Road",
    "city": "Jaipur",
    "state": "India",
    "pincode": 311357,
    "phone": "+91-7903900431",
    "lat": 26.911650998158066,
    "lng": 75.76828863166442
  },
  {
    "name": "Dr. Aditi Kulkarni",
    "specialty": "Urology",
    "clinic": "Kulkarni Health Clinic",
    "address": "75 Delhi Main Road",
    "city": "Delhi",
    "state": "India",
    "pincode": 702987,
    "phone": "+91-7593255628",
    "lat": 28.722206138039045,
    "lng": 77.11918591191669
  },
  {
    "name": "Dr. Sneha Rao",
    "specialty": "Urology",
    "clinic": "Rao Health Clinic",
    "address": "73 Jaipur Main Road",
    "city": "Jaipur",
    "state": "India",
    "pincode": 887098,
    "phone": "+91-8647503583",
    "lat": 26.928534884042794,
    "lng": 75.77051542253139
  },
  {
    "name": "Dr. Meera Das",
    "specialty": "Urology",
    "clinic": "Das Health Clinic",
    "address": "15 Ahmedabad Main Road",
    "city": "Ahmedabad",
    "state": "India",
    "pincode": 196677,
    "phone": "+91-7217372985",
    "lat": 23.018663815337757,
    "lng": 72.55153368024789
  },
  {
    "name": "Dr. Farheen Patel",
    "specialty": "Urology",
    "clinic": "Patel Health Clinic",
    "address": "103 Lucknow Main Road",
    "city": "Lucknow",
    "state": "India",
    "pincode": 480106,
    "phone": "+91-9189308409",
    "lat": 26.843418874829236,
    "lng": 80.9613966735056
  },
  {
    "name": "Dr. Priya Khan",
    "specialty": "Urology",
    "clinic": "Khan Health Clinic",
    "address": "98 Kolkata Main Road",
    "city": "Kolkata",
    "state": "India",
    "pincode": 149661,
    "phone": "+91-7786720618",
    "lat": 22.55535934373647,
    "lng": 88.3743713859408
  }
]